ident,type,name,elevation_ft,continent,iso_country,iso_region,municipality,gps_code,iata_code,local_code,longitude,latitude,geoid
KZZV,medium_airport,Zanesville Municipal Airport,900,NA,US,US-OH,Zanesville,KZZV,ZZV,ZZV,-81.89209747,39.944400790000003,3963478
KZPH,small_airport,Zephyrhills Municipal Airport,90,NA,US,US-FL,Zephyrhills,KZPH,ZPH,ZPH,-82.15589905,28.228200910000002,1279225
ZNC,small_airport,Nyac Airport,460,NA,US,US-AK,Nyac,ZNC,ZNC,ZNC,-159.9940033,60.980701449999998,0278790
KNYL,medium_airport,Yuma MCAS/Yuma International Airport,213,NA,US,US-AZ,Yuma,KNYL,YUM,NYL,-114.6060028,32.656600949999998,0451800
KYNG,medium_airport,Youngstown Warren Regional Airport,1192,NA,US,US-OH,Youngstown/Warren,KYNG,YNG,YNG,-80.67910004,41.260700229999998,3980066
KYKN,medium_airport,Chan Gurney Municipal Airport,1306,NA,US,US-SD,Yankton,KYKN,YKN,YKN,-97.3859024,42.916698459999999,4673060
KYKM,medium_airport,Yakima Air Terminal McAllister Field,1099,NA,US,US-WA,Yakima,KYKM,YKM,YKM,-120.5439987,46.568199159999999,5380010
KYIP,medium_airport,Willow Run Airport,716,NA,US,US-MI,Detroit,KYIP,YIP,YIP,-83.53040314,42.237899779999999,2607020
PAYA,medium_airport,Yakutat Airport,33,NA,US,US-AK,Yakutat,PAYA,YAK,YAK,-139.6600037,59.503299710000000,0286490
XXZ,medium_airport,Modi,29977,NA,US,US-CA,California,EGLA,XXZ,NY12,179.999894000000012,89.999844999999993,0205200
US-0571,medium_airport,Williston Basin International Airport,2344,NA,US,US-ND,Williston,KXWA,XWA,XWA,-103.748797,48.258386999999999,3886220
KTNX,small_airport,Tonopah Test Range Airport,5549,NA,US,US-NV,Tonopah,KTNX,XSD,TNX,-116.7809982,37.798801419999997,3228900
KIEN,small_airport,Pine Ridge Airport,3333,NA,US,US-SD,Pine Ridge,KIEN,XPR,IEN,-102.5110016,43.022499080000003,4649660
KXNA,medium_airport,Northwest Arkansas Regional Airport,1287,NA,US,US-AR,Fayetteville/Springdale/Rogers,KXNA,XNA,XNA,-94.306801,36.281897999999998,0532200
KMDS,small_airport,Madison Municipal Airport,1718,NA,US,US-SD,Madison,KMDS,XMD,MDS,-97.08589935,44.015998840000002,4640220
KC02,small_airport,Grand Geneva Resort Airport,835,NA,US,US-WI,Lake Geneva,,XES,C02,-88.389603,42.614899000000001,5575975
KWYS,medium_airport,Yellowstone Airport,6649,NA,US,US-MT,West Yellowstone,KWYS,WYS,WYS,-111.1179962,44.688400270000002,3079525
78K,seaplane_base,Yes Bay Lodge Seaplane Base,,NA,US,US-AK,Yes Bay,78K,WYB,78K,-131.8009949,55.916301730000001,0245020
PAEW,small_airport,Newtok Airport,25,NA,US,US-AK,Newtok,PAEW,WWT,EWU,-164.6410065,60.939098360000003,0253820
KWWR,medium_airport,West Woodward Airport,2189,NA,US,US-OK,Woodward,KWWR,WWR,WWR,-99.5226667,36.438000000000002,4082150
96Z,seaplane_base,Whale Pass Seaplane Float Harbor Facility,0,NA,US,US-AK,Whale Pass,,WWP,96Z,-133.121994,56.116298999999998,0284000
KWWD,medium_airport,Cape May County Airport,23,NA,US,US-NJ,Wildwood,KWWD,WWD,WWD,-74.90830231,39.008499149999999,3421660
PAWS,medium_airport,Wasilla Airport,354,NA,US,US-AK,Wasilla,PAWS,WWA,IYS,-149.5399933,61.571701050000001,0283080
KWVL,small_airport,Waterville Robert Lafleur Airport,333,NA,US,US-ME,Waterville,KWVL,WVL,WVL,-69.67549896,44.533199310000001,2380740
KWVI,small_airport,Watsonville Municipal Airport,163,NA,US,US-CA,Watsonville,KWVI,WVI,WVI,-121.7900009,36.935699460000002,0625576
KE24,small_airport,Whiteriver Airport,5153,NA,US,US-AZ,Whiteriver,E24,WTR,E24,-109.9869995,33.812500000000000,0424250
A61,small_airport,Tuntutuliak Airport,16,NA,US,US-AK,Tuntutuliak,A61,WTL,A61,-162.6670074,60.335300449999998,0279120
PAWN,medium_airport,Noatak Airport,88,NA,US,US-AK,Noatak,PAWN,WTK,WTK,-162.9750061,67.566101070000002,0254700
WA83,seaplane_base,Westsound/Wsx Seaplane Base,,NA,US,US-WA,Westsound,WA83,WSX,WA83,-122.9530029,48.617900849999998,5325615
KWST,small_airport,Westerly State Airport,81,NA,US,US-RI,Westerly,KWST,WST,WST,-71.80339813,41.349601749999998,4476820
PFWS,small_airport,South Naknek Nr 2 Airport,162,NA,US,US-AK,South Naknek,PFWS,WSN,WSN,-157.0079956,58.703399660000002,0272190
WSM,small_airport,Wiseman Airport,1180,NA,US,US-AK,Wiseman,WSM,WSM,WSM,-150.1230011,67.404602049999994,0285610
KHWV,small_airport,Brookhaven Airport,81,NA,US,US-NY,Shirley,KHWV,WSH,HWV,-72.86940002,40.821899410000000,3646074
KAFJ,small_airport,Washington County Airport,1184,NA,US,US-PA,Washington,KAFJ,WSG,AFJ,-80.29019928,40.136501310000000,4231082
KWSD,small_airport,Condron Army Air Field,3934,NA,US,US-NM,White Sands,KWSD,WSD,WSD,-106.4029999,32.341499329999998,3584845
WSB,seaplane_base,Steamboat Bay Seaplane Base,,NA,US,US-AK,Steamboat Bay,WSB,WSB,WSB,-133.6419983,55.529598239999999,0217740
KWRL,medium_airport,Worland Municipal Airport,4227,NA,US,US-WY,Worland,KWRL,WRL,WRL,-107.9509964,43.965698240000002,5684925
KWRI,medium_airport,Mc Guire Air Force Base,131,NA,US,US-NJ,Wrightstown,KWRI,WRI,WRI,-74.59169769,40.015598300000001,3442390
PAWG,medium_airport,Wrangell Airport,49,NA,US,US-AK,Wrangell,PAWG,WRG,WRG,-132.3699951,56.484298709999997,0286380
KWRB,large_airport,Robins Air Force Base,294,NA,US,US-GA,Warner Robins,KWRB,WRB,WRB,-83.59190369,32.640098569999999,1365968
K7V2,small_airport,North Fork Valley Airport,5798,NA,US,US-CO,Paonia,K7V2,WPO,7V2,-107.6460037,38.831699370000003,0857300
PAUO,small_airport,Willow Airport,221,NA,US,US-AK,Willow,PAUO,WOW,UUO,-150.052002,61.754199980000003,0285280
PANA,small_airport,Napakiak Airport,17,NA,US,US-AK,Napakiak,PANA,WNA,WNA,-161.9790039,60.690299990000000,0252390
PAWM,small_airport,White Mountain Airport,267,NA,US,US-AK,White Mountain,PAWM,WMO,WMO,-163.4129944,64.689201359999998,0284070
84K,seaplane_base,Meyers Chuck Seaplane Base,0,NA,US,US-AK,Meyers Chuck,84K,WMK,84K,-132.2550049,55.739601139999998,0277140
KBPK,medium_airport,Ozark Regional Airport,928,NA,US,US-AR,Mountain Home,KBPK,WMH,BPK,-92.47049713,36.368900300000000,0545530
KWMC,medium_airport,Winnemucca Municipal Airport,4308,NA,US,US-NV,Winnemucca,KWMC,WMC,WMC,-117.8059998,40.896598820000001,3284800
KWLW,small_airport,Willows Glenn County Airport,141,NA,US,US-CA,Willows,KWLW,WLW,WLW,-122.2180023,39.516399380000003,0685684
13Z,seaplane_base,Loring Seaplane Base,0,NA,US,US-AK,Loring,13Z,WLR,13Z,-131.6369934,55.601299290000000,0245020
PASK,medium_airport,Selawik Airport,17,NA,US,US-AK,Selawik,PASK,WLK,WLK,-159.9859924,66.600097660000003,0268230
KWLD,small_airport,Strother Field,1160,NA,US,US-KS,Winfield/Arkansas City,KWLD,WLD,WLD,-97.03759766,37.168598179999996,2002300
HI07,heliport,Waikoloa Heliport,119,NA,US,US-HI,Waikoloa Village,HI07,WKL,HI07,-155.8607,19.920500000000001,1565150
5A8,medium_airport,Aleknagik / New Airport,66,NA,US,US-AK,Aleknagik,5A8,WKK,5A8,-158.6179962,59.282600400000000,0201420
KWJF,medium_airport,General WM J Fox Airfield,2351,NA,US,US-CA,Lancaster,KWJF,WJF,WJF,-118.2190018,34.741100310000000,0640130
KF05,small_airport,Wilbarger County Airport,1265,NA,US,US-TX,Vernon,F05,WIB,F05,-99.28379822,34.225700379999999,4875308
KARM,small_airport,Wharton Regional Airport,100,NA,US,US-TX,Wharton,KARM,WHT,ARM,-96.15440369,29.254299159999999,4878136
KWHP,small_airport,Whiteman Airport,1003,NA,US,US-CA,Los Angeles,KWHP,WHP,WHP,-118.413002,34.259300230000001,0666140
4Z7,seaplane_base,Hyder Seaplane Base,,NA,US,US-AK,Hyder,,WHD,4Z7,-130.009975,55.903323999999998,0234570
KOKV,small_airport,Winchester Regional Airport,726,NA,US,US-VA,Winchester,KOKV,WGO,OKV,-78.14440155,39.143501280000002,5186720
KFVE,small_airport,Northern Aroostook Regional Airport,988,NA,US,US-ME,Frenchville,KFVE,WFK,FVE,-68.31279755,47.285499569999999,2342485
5KE,seaplane_base,Ketchikan Harbor Seaplane Base,,NA,US,US-AK,Ketchikan,,WFB,5KE,-131.677002,55.349899000000001,0238970
WEA,small_airport,Parker County Airport,990,NA,US,US-TX,Weatherford,KWEA,WEA,WEA,-97.68240356,32.746299739999998,4835254
KWDR,small_airport,Barrow County Airport,943,NA,US,US-GA,Winder,KWDR,WDR,WDR,-83.66739655,33.982898710000001,1367676
90WA,small_airport,Waldron Airstrip,140,NA,US,US-WA,East Sound,90WA,WDN,90WA,-123.017998,48.711799999999997,5325615
KWDG,small_airport,Enid Woodring Regional Airport,1167,NA,US,US-OK,Enid,KWDG,WDG,WDG,-97.79109955,36.379199980000003,4023950
PALR,small_airport,Chandalar Lake Airport,1920,NA,US,US-AK,Chandalar Lake,PALR,WCR,WCR,-148.4830017,67.504501340000004,0285610
KWBW,small_airport,Wilkes Barre Wyoming Valley Airport,545,NA,US,US-PA,Wilkes-Barre,KWBW,WBW,WBW,-75.85119629,41.297199249999998,4286856
KBDU,small_airport,Boulder Municipal Airport,5288,NA,US,US-CO,Boulder,KBDU,WBU,BDU,-105.2259979,40.039398190000000,0880370
KRQB,small_airport,Roben Hood Airport,990,NA,US,US-MI,Big Rapids,KRQB,WBR,RQB,-85.50409698,43.722599029999998,2608300
PAWB,small_airport,Beaver Airport,359,NA,US,US-AK,Beaver,PAWB,WBQ,WBQ,-147.4069977,66.362197879999997,0205750
KY31,small_airport,West Branch Community Airport,882,NA,US,US-MI,West Branch,,WBK,Y31,-84.179802,44.244801000000002,2685580
WBB,small_airport,Stebbins Airport,14,NA,US,US-AK,Stebbins,WBB,WBB,WBB,-162.2779999,63.515998840000002,0272960
KWAY,small_airport,Greene County Airport,1069,NA,US,US-PA,Waynesburg,KWAY,WAY,WAY,-80.13310242,39.900100709999997,4251152
KWAL,small_airport,Wallops Flight Facility Airport,40,NA,US,US-VA,Wallops Island,KWAL,WAL,WAL,-75.46640015,37.940200810000000,5183568
KBWP,small_airport,Harry Stern Airport,968,NA,US,US-ND,Wahpeton,KBWP,WAH,BWP,-96.60739899,46.244098659999999,2707462
PAIW,small_airport,Wales Airport,22,NA,US,US-AK,Wales,PAIW,WAA,IWK,-168.095,65.622592999999995,0282860
KVYS,small_airport,Illinois Valley Regional Airport-Walter A Duncan Field,654,NA,US,US-IL,Peru,KVYS,VYS,VYS,-89.153099,41.351897999999998,1759234
KVTN,medium_airport,Miller Field,2596,NA,US,US-NE,Valentine,KVTN,VTN,VTN,-100.5479965,42.857799530000001,3149950
KVSF,small_airport,Hartness State (Springfield) Airport,577,NA,US,US-VT,Springfield,KVSF,VSF,VSF,-72.51730347,43.343601229999997,5051925
3VS,small_airport,Roy Otten Memorial Airfield,1030,NA,US,US-MO,Versailles,3VS,VRS,3VS,-92.87519836,38.427799219999997,2975922
KVRB,medium_airport,Vero Beach Regional Airport,24,NA,US,US-FL,Vero Beach,KVRB,VRB,VRB,-80.417901,27.655600000000000,1225925
KVQQ,small_airport,Cecil Airport,81,NA,US,US-FL,Jacksonville,KVQQ,VQQ,VQQ,-81.87670136,30.218700410000000,1250630
KVPZ,medium_airport,Porter County Municipal Airport,770,NA,US,US-IN,Valparaiso,KVPZ,VPZ,VPZ,-87.00710297,41.453998570000003,1878326
KVPS,large_airport,Destin-Ft Walton Beach Airport,87,NA,US,US-FL,Valparaiso,KVPS,VPS,VPS,-86.525398,30.483200000000000,1273675
KVOK,medium_airport,Volk Field,912,NA,US,US-WI,Camp Douglas,KVOK,VOK,VOK,-90.25340271,43.938999180000003,5512350
KVNY,medium_airport,Van Nuys Airport,802,NA,US,US-CA,Van Nuys,KVNY,VNY,VNY,-118.4899979,34.209800719999997,0666140
KVNC,small_airport,Venice Municipal Airport,18,NA,US,US-FL,Venice,KVNC,VNC,VNC,-82.44029999,27.071599960000000,1273950
K40G,small_airport,Valle Airport,5999,NA,US,US-AZ,Grand Canyon,40G,VLE,40G,-112.1480026,35.650600429999997,0478855
KVLD,medium_airport,Valdosta Regional Airport,203,NA,US,US-GA,Valdosta,KVLD,VLD,VLD,-83.27670288,30.782499309999999,1321744
KVLA,small_airport,Vandalia Municipal Airport,537,NA,US,US-IL,Vandalia,KVLA,VLA,VLA,-89.16619873,38.991500850000001,1777317
KVKS,small_airport,Vicksburg Municipal Airport,106,NA,US,US-MS,Vicksburg,KVKS,VKS,VKS,-90.92839813,32.239299770000002,2220330
KVJI,small_airport,Virginia Highlands Airport,2087,NA,US,US-VA,Abingdon,KVJI,VJI,VJI,-82.03330231,36.687099459999999,5100148
KVIS,small_airport,Visalia Municipal Airport,295,NA,US,US-CA,Visalia,KVIS,VIS,VIS,-119.3929977,36.318698879999999,0630476
KVIH,small_airport,Rolla National Airport,1148,NA,US,US-MO,Rolla/Vichy,KVIH,VIH,VIH,-91.76950073,38.127399439999998,2976102
KVHN,small_airport,Culberson County Airport,3957,NA,US,US-TX,Van Horn,KVHN,VHN,VHN,-104.7839966,31.057800289999999,4875032
KVGT,medium_airport,North Las Vegas Airport,2205,NA,US,US-NV,Las Vegas,KVGT,VGT,VGT,-115.1940002,36.210700989999999,3240000
KD60,small_airport,Tioga Municipal Airport,2271,NA,US,US-ND,Tioga,D60,VEX,D60,-102.8980026,48.380500789999999,3878940
KVEL,medium_airport,Vernal Regional Airport,5278,NA,US,US-UT,Vernal,KVEL,VEL,VEL,-109.5100021,40.440898900000001,4953560
PAVE,small_airport,Venetie Airport,574,NA,US,US-AK,Venetie,PAVE,VEE,VEE,-146.3659973,67.008697510000005,0282420
PAVD,medium_airport,Valdez Pioneer Field,121,NA,US,US-AK,Valdez,PAVD,VDZ,VDZ,-146.2480011,61.133899690000000,0282200
KVDI,small_airport,Vidalia Regional Airport,275,NA,US,US-GA,Vidalia,KVDI,VDI,VDI,-82.37120056,32.192699429999998,1379388
KVCV,small_airport,Southern California Logistics Airport,2885,NA,US,US-CA,Victorville,KVCV,VCV,VCV,-117.3830032,34.597499849999998,0600296
KVCT,medium_airport,Victoria Regional Airport,115,NA,US,US-TX,Victoria,KVCT,VCT,VCT,-96.91850281,28.852600100000000,4875428
KVBG,large_airport,Vandenberg Air Force Base,369,NA,US,US-CA,Lompoc,KVBG,VBG,VBG,-120.5839996,34.737300869999999,0682072
PAVA,small_airport,Chevak Airport,75,NA,US,US-AK,Chevak,PAVA,VAK,VAK,-165.6005,61.540900000000001,0213230
KVAD,medium_airport,Moody Air Force Base,233,NA,US,US-GA,Valdosta,KVAD,VAD,VAD,-83.19300079,30.967800140000001,1352556
MA53,small_airport,Ware Airport,483,NA,US,US-MA,Ware,MA53,UWA,MA53,-72.21479797,42.282001500000000,2572845
KUVA,small_airport,Garner Field,942,NA,US,US-TX,Uvalde,KUVA,UVA,UVA,-99.74359894,29.211299900000000,4874588
PAKU,small_airport,Ugnu-Kuparuk Airport,67,NA,US,US-AK,Kuparuk,PAKU,UUK,UBW,-149.5980072,70.330802919999996,0264380
PAIM,medium_airport,Indian Mountain LRRS Airport,1273,NA,US,US-AK,Utopia Creek,PAIM,UTO,UTO,-153.7039948,65.992797850000002,0233910
KUTA,small_airport,Tunica Municipal Airport,194,NA,US,US-MS,Tunica,KUTA,UTM,UTA,-90.34670258,34.680999759999999,2874760
KSGJ,medium_airport,Northeast Florida Regional Airport,10,NA,US,US-FL,St Augustine,KSGJ,UST,SGJ,-81.339798,29.959199999999999,1274498
KJQF,small_airport,Concord-Padgett Regional Airport,705,NA,US,US-NC,Concord,KJQF,USA,JQF,-80.709099,35.387797999999997,3714100
PHUP,medium_airport,Upolu Airport,96,NA,US,US-HI,Hawi,PHUP,UPP,UPP,-155.8600006,20.265300750000002,1513600
KUOX,medium_airport,University Oxford Airport,452,NA,US,US-MS,Oxford,KUOX,UOX,UOX,-89.53679657,34.384300230000001,2875520
KUOS,small_airport,Franklin County Airport,1953,NA,US,US-TN,Sewanee,KUOS,UOS,UOS,-85.89810181,35.205101010000000,4767140
KUNU,small_airport,Dodge County Airport,934,NA,US,US-WI,Juneau,KUNU,UNU,UNU,-88.70320129,43.426601410000004,5538675
PAUN,small_airport,Unalakleet Airport,27,NA,US,US-AK,Unalakleet,PAUN,UNK,UNK,-160.798996,63.888401029999997,0280660
PAUM,small_airport,Umiat Airport,267,NA,US,US-AK,Umiat,PAUM,UMT,UMT,-152.1360016,69.371101379999999,0256320
PAST,small_airport,Summit Airport,2409,NA,US,US-AK,Summit,PAST,UMM,UMM,-149.1269989,63.331501009999997,0210150
KULM,small_airport,New Ulm Municipal Airport,1011,NA,US,US-MN,New Ulm,KULM,ULM,ULM,-94.50229645,44.319599150000002,2746042
KUKT,small_airport,Quakertown Airport,526,NA,US,US-PA,Quakertown,KUKT,UKT,UKT,-75.38189697,40.435199740000002,4249440
Y01,small_airport,Waukon Municipal Airport,1281,NA,US,US-IA,Waukon,Y01,UKN,Y01,-91.46949768,43.280498500000000,1982740
KUKI,medium_airport,Ukiah Municipal Airport,614,NA,US,US-CA,Ukiah,KUKI,UKI,UKI,-123.2009964,39.125999450000002,0681134
KUIZ,closed,Berz-Macomb Airport,610,NA,US,US-MI,,KUIZ,UIZ,UIZ,-82.9654007,42.663898469999999,2681540
KUIN,medium_airport,Quincy Regional Baldwin Field,768,NA,US,US-IL,Quincy,KUIN,UIN,UIN,-91.19460297,39.942699429999998,1715846
KUIL,small_airport,Quillayute Airport,194,NA,US,US-WA,Quillayute,KUIL,UIL,UIL,-124.5630035,47.936599729999998,5324810
9A8,small_airport,Ugashik Airport,25,NA,US,US-AK,Ugashik,9A8,UGS,9A8,-157.3990021,57.527900699999996,0280100
KUGN,small_airport,Waukegan National Airport,727,NA,US,US-IL,Chicago/Waukegan,KUGN,UGN,UGN,-87.86789703,42.422199249999998,1704303
WSJ,seaplane_base,San Juan /Uganik/ Seaplane Base,0,NA,US,US-AK,San Juan,,UGI,WSJ,-153.320999,57.730400000000003,0263610
UGB,small_airport,Ugashik Bay Airport,132,NA,US,US-AK,Pilot Point,UGB,UGB,UGB,-157.7400055,57.425399779999999,0260640
KUES,small_airport,Waukesha County Airport,911,NA,US,US-WI,Waukesha,KUES,UES,UES,-88.23709869,43.041000369999999,5562240
KUDD,small_airport,Bermuda Dunes Airport,73,NA,US,US-CA,Palm Springs,KUDD,UDD,UDD,-116.2750015,33.748401639999997,0606028
KUCY,small_airport,Everett-Stewart Regional Airport,336,NA,US,US-TN,Union City,KUCY,UCY,UCY,-88.98539734,36.381801609999997,4763800
K4R7,small_airport,Eunice Airport,42,NA,US,US-LA,Eunice,4R7,UCE,4R7,-92.42379761,30.466299060000001,2224565
NV11,small_airport,Yucca Airstrip,3919,NA,US,US-NV,Mercury,NV11,UCC,NV11,-116.038002,36.945800779999999,3235300
KUBS,small_airport,Columbus Lowndes County Airport,188,NA,US,US-MS,Columbus,KUBS,UBS,UBS,-88.38030243,33.465400699999996,2851400
KCFS,small_airport,Tuscola Area Airport,701,NA,US,US-MI,Caro,KCFS,TZC,CFS,-83.44550323,43.458801270000002,2613420
KTYL,small_airport,Taylor Airport,5823,NA,US,US-AZ,Taylor,KTYL,TYZ,TYL,-110.1149979,34.452800750000002,0472420
KTYS,large_airport,McGhee Tyson Airport,981,NA,US,US-TN,Knoxville,KTYS,TYS,TYS,-83.9940033,35.811000819999997,4700540
KTYR,medium_airport,Tyler Pounds Regional Airport,544,NA,US,US-TX,Tyler,KTYR,TYR,TYR,-95.40239716,32.354099269999999,4814224
TYE,small_airport,Tyonek Airport,110,NA,US,US-AK,Tyonek,TYE,TYE,TYE,-151.1380005,61.076698299999997,0279890
KTXK,medium_airport,Texarkana Regional Webb Field,390,NA,US,US-AR,Texarkana,KTXK,TXK,TXK,-93.99099731,33.453701019999997,0568810
TWH,seaplane_base,Two Harbors Amphibious Terminal,,NA,US,US-CA,Two Harbors,,TWH,,-118.5086111,33.432222220000000,0603274
KTWF,medium_airport,Joslin Field Magic Valley Regional Airport,4154,NA,US,US-ID,Twin Falls,KTWF,TWF,TWF,-114.487999,42.481800000000000,1682810
AK49,small_airport,Taylor Airport,440,NA,US,US-AK,Taylor,AK49,TWE,AK49,-164.798996,65.679298399999993,0275930
K0S9,small_airport,Jefferson County International Airport,108,NA,US,US-WA,Port Townsend,K0S9,TWD,0S9,-122.810997,48.053798680000000,5355620
A63,small_airport,Twin Hills Airport,82,NA,US,US-AK,Twin Hills,A63,TWA,A63,-160.272995,59.075599670000003,0279780
KTVL,medium_airport,Lake Tahoe Airport,6264,NA,US,US-CA,South Lake Tahoe,KTVL,TVL,TVL,-119.9950027,38.893901820000004,0673108
KTVI,small_airport,Thomasville Regional Airport,264,NA,US,US-GA,Thomasville,KTVI,TVI,TVI,-83.88130188,30.901599879999999,1376224
KTVF,small_airport,Thief River Falls Regional Airport,1119,NA,US,US-MN,Thief River Falls,KTVF,TVF,TVF,-96.18499756,48.065700530000001,2764570
KTVC,medium_airport,Cherry Capital Airport,624,NA,US,US-MI,Traverse City,KTVC,TVC,TVC,-85.5821991,44.741401670000002,2680340
KTUS,large_airport,Tucson International Airport / Morris Air National Guard Base,2643,NA,US,US-AZ,Tucson,KTUS,TUS,TUS,-110.938053,32.115003999999999,0470240
KTUP,medium_airport,Tupelo Regional Airport,346,NA,US,US-MS,Tupelo,KTUP,TUP,TUP,-88.76989746,34.268100740000001,2874840
KTUL,large_airport,Tulsa International Airport,677,NA,US,US-OK,Tulsa,KTUL,TUL,TUL,-95.88809967,36.198398589999996,4075000
KAYX,small_airport,Arnold Air Force Base,1067,NA,US,US-TN,Tullahoma,KAYX,TUH,AYX,-86.08580017,35.392601010000000,4745500
KBTN,small_airport,Britton Municipal Airport,1318,NA,US,US-SD,Britton,KBTN,TTO,BTN,-97.74310303,45.815200810000000,4607380
KTTN,medium_airport,Trenton Mercer Airport,213,NA,US,US-NJ,Trenton,KTTN,TTN,TTN,-74.81349945,40.276699069999999,4286920
KTTD,medium_airport,Portland Troutdale Airport,39,NA,US,US-OR,Portland,KTTD,TTD,TTD,-122.401001,45.549400329999997,4174850
6N5,heliport,East 34th Street Heliport,10,NA,US,US-NY,New York,6N5,TSS,6N5,-73.9720993,40.742599490000003,3432250
KTSP,small_airport,Tehachapi Municipal Airport,4001,NA,US,US-CA,Tehachapi,KTSP,TSP,TSP,-118.439003,35.134998320000001,0678092
KSKX,small_airport,Taos Regional Airport,7095,NA,US,US-NM,Taos,KSKX,TSM,SKX,-105.6719971,36.458198549999999,3505010
TSG,small_airport,Tanacross Airport,1549,NA,US,US-AK,Tanacross,TSG,TSG,TSG,-143.3359985,63.374401089999999,0275050
KTRM,medium_airport,Jacqueline Cochran Regional Airport,-115,NA,US,US-CA,Palm Springs,KTRM,TRM,TRM,-116.1600037,33.626701349999998,0678456
KTRL,small_airport,Terrell Municipal Airport,474,NA,US,US-TX,Terrell,KTRL,TRL,TRL,-96.26740265,32.709201810000003,4872284
KTRI,large_airport,Tri-Cities Regional TN/VA Airport,1519,NA,US,US-TN,Bristol/Johnson/Kingsport,KTRI,TRI,TRI,-82.407401,36.475200999999998,4770680
KL72,small_airport,Trona Airport,1716,NA,US,US-CA,Trona,L72,TRH,L72,-117.3270035,35.812500000000000,0680515
KTPL,medium_airport,Draughon Miller Central Texas Regional Airport,682,NA,US,US-TX,Temple,KTPL,TPL,TPL,-97.40779877,31.152500150000002,4849392
KTPH,medium_airport,Tonopah Airport,5430,NA,US,US-NV,Tonopah,KTPH,TPH,TPH,-117.086998,38.060199740000002,3273600
KTPF,small_airport,Peter O Knight Airport,8,NA,US,US-FL,Tampa,KTPF,TPF,TPF,-82.44930267,27.915599820000001,1271000
KTPA,large_airport,Tampa International Airport,26,NA,US,US-FL,Tampa,KTPA,TPA,TPA,-82.53320313,27.975500109999999,1220108
KTOR,small_airport,Torrington Municipal Airport,4207,NA,US,US-WY,Torrington,KTOR,TOR,TOR,-104.1529999,42.064498899999997,5677530
KTOP,medium_airport,Philip Billard Municipal Airport,881,NA,US,US-KS,Topeka,KTOP,TOP,TOP,-95.62249756,39.068698879999999,2028200
KTOL,large_airport,Toledo Express Airport,683,NA,US,US-OH,Toledo,KTOL,TOL,TOL,-83.80780029,41.586799620000001,3975896
KTOI,medium_airport,Troy Municipal Airport at N Kenneth Campbell Field,398,NA,US,US-AL,Troy,KTOI,TOI,TOI,-86.012101,31.860399000000001,0176920
PATG,medium_airport,Togiak Airport,21,NA,US,US-AK,Togiak Village,PATG,TOG,TOG,-160.3970032,59.052799219999997,0279780
KTOC,small_airport,Toccoa Airport - R.G. Letourneau Field,996,NA,US,US-GA,Toccoa,KTOC,TOC,TOC,-83.29579926,34.593799590000003,1376756
KTOA,small_airport,Zamperini Field,103,NA,US,US-CA,Torrance,KTOA,TOA,TOA,-118.3399963,33.803398129999998,0642468
KTNU,small_airport,Newton Municipal Airport,953,NA,US,US-IA,Newton,KTNU,TNU,TNU,-93.021698,41.674400329999997,1956505
KTNT,small_airport,Dade Collier Training and Transition Airport,13,NA,US,US-FL,Miami,KTNT,TNT,TNT,-80.89700317,25.861799240000000,1212150
KTNP,small_airport,Twentynine Palms Airport,1888,NA,US,US-CA,Twentynine Palms,KTNP,TNP,TNP,-115.9459991,34.131599430000001,0680994
4KA,small_airport,Tununak Airport,14,NA,US,US-AK,Tununak,4KA,TNK,4KA,-165.2720032,60.575500490000003,0279230
PATC,small_airport,Tin City Long Range Radar Station Airport,271,NA,US,US-AK,Tin City,PATC,TNC,TNC,-167.9219971,65.563102720000003,0282860
KTMB,medium_airport,Miami Executive Airport,8,NA,US,US-FL,Miami,KTMB,TMB,TMB,-80.4328,25.647900000000000,1215055
KTMA,small_airport,Henry Tift Myers Airport,355,NA,US,US-GA,Tifton,KTMA,TMA,TMA,-83.4885025,31.429000850000001,1378464
TLT,small_airport,Tuluksak Airport,30,NA,US,US-AK,Tuluksak,TLT,TLT,TLT,-160.9689941,61.096801759999998,0278790
KTLR,small_airport,Mefford Field,265,NA,US,US-CA,Tulare,KTLR,TLR,TLR,-119.3259964,36.156299590000003,0646223
PATL,medium_airport,Tatalina LRRS Airport,964,NA,US,US-AK,Takotna,PATL,TLJ,TLJ,-155.977005,62.894401549999998,0274610
KTLH,large_airport,Tallahassee Regional Airport,81,NA,US,US-FL,Tallahassee,KTLH,TLH,TLH,-84.35030365,30.396499630000001,1270600
2K5,small_airport,Telida Airport,650,NA,US,US-AK,Telida,2K5,TLF,2K5,-153.2689972,63.393901820000004,0242820
PATE,small_airport,Teller Airport,294,NA,US,US-AK,Teller,PATE,TLA,TER,-166.3390045,65.240402220000007,0275930
TKL,seaplane_base,Taku Lodge Seaplane Base,0,NA,US,US-AK,Taku Lodge,TKL,TKL,TKL,-133.9429932,58.489700319999997,0236400
PFTO,small_airport,Tok Junction Airport,1639,NA,US,US-AK,Tok,PFTO,TKJ,6K8,-142.9539948,63.329498289999997,0277800
57A,seaplane_base,Tokeen Seaplane Base,,NA,US,US-AK,Tokeen,57A,TKI,57A,-133.3269959,55.937099459999999,0252845
KTRK,medium_airport,Truckee Tahoe Airport,5900,NA,US,US-CA,Truckee,KTRK,TKF,TRK,-120.1399994,39.319999690000003,0680588
TKE,seaplane_base,Tenakee Seaplane Base,0,NA,US,US-AK,Tenakee Springs,TKE,TKE,TKE,-135.2180023,57.779701230000001,0276260
PATK,medium_airport,Talkeetna Airport,358,NA,US,US-AK,Talkeetna,PATK,TKA,TKA,-150.0939941,62.320499419999997,0274830
KTIX,medium_airport,Space Coast Regional Airport,34,NA,US,US-FL,Titusville,KTIX,TIX,TIX,-80.79920197,28.514799119999999,1258700
KTIW,medium_airport,Tacoma Narrows Airport,294,NA,US,US-WA,Tacoma,KTIW,TIW,TIW,-122.5780029,47.267898559999999,5379555
KTIK,large_airport,Tinker Air Force Base,1291,NA,US,US-OK,Oklahoma City,KTIK,TIK,TIK,-97.38659668,35.414699550000002,4048350
KTHV,small_airport,York Airport,495,NA,US,US-PA,York,KTHV,THV,THV,-76.8730011,39.916999820000001,4273192
KHSG,small_airport,Hot Springs County Airport,4895,NA,US,US-WY,Thermopolis,KHSG,THP,HSG,-108.389687,43.713602000000002,5676515
KTHM,small_airport,Thompson Falls Airport,2467,NA,US,US-MT,Thompson Falls,KTHM,THM,THM,-115.2809982,47.573501589999999,3073825
KTHA,small_airport,Tullahoma Regional Arpt/Wm Northern Field,1083,NA,US,US-TN,Tullahoma,KTHA,THA,THA,-86.24639893,35.380100249999998,4775320
AL73,small_airport,Sharpe Field,253,NA,US,US-AL,Tuskegee,AL73,TGE,AL73,-85.77559662,32.491901400000003,0128024
KTEX,small_airport,Telluride Regional Airport,9070,NA,US,US-CO,Telluride,KTEX,TEX,TEX,-107.9079971,37.953800200000003,0852550
7KA,small_airport,Tatitlek Airport,62,NA,US,US-AK,Tatitlek,PAKA,TEK,7KA,-146.690297,60.871448999999998,0275380
KTEB,medium_airport,Teterboro Airport,9,NA,US,US-NJ,Teterboro,KTEB,TEB,TEB,-74.06079865,40.850101469999998,3472480
KTDZ,small_airport,Toledo Executive Airport,623,NA,US,US-OH,Toledo,KTDZ,TDZ,TDZ,-83.4822998,41.564899439999998,3980486
KTDW,small_airport,Tradewind Airport,3649,NA,US,US-TX,Amarillo,KTDW,TDW,TDW,-101.8259964,35.169898990000000,4803000
KTDO,small_airport,Ed Carlson Memorial Field South Lewis County Airport,374,NA,US,US-WA,Toledo,KTDO,TDO,TDO,-122.8059998,46.477199550000002,5371785
TCT,small_airport,Takotna Airport,825,NA,US,US-AK,Takotna,PPCT,TCT,TCT,-156.029026,62.993206000000001,0274610
KTCS,medium_airport,Truth Or Consequences Municipal Airport,4853,NA,US,US-NM,Truth Or Consequences,KTCS,TCS,TCS,-107.2720032,33.236900329999997,3579840
KTCM,large_airport,McChord Air Force Base,322,NA,US,US-WA,Tacoma,KTCM,TCM,TCM,-122.4759979,47.137699130000001,5341155
KTCL,medium_airport,Tuscaloosa Regional Airport,170,NA,US,US-AL,Tuscaloosa,KTCL,TCL,TCL,-87.61139679,33.220600130000001,0155200
KTCC,medium_airport,Tucumcari Municipal Airport,4065,NA,US,US-NM,Tucumcari,KTCC,TCC,TCC,-103.6029968,35.182800290000003,3579910
KTBR,small_airport,Statesboro Bulloch County Airport,187,NA,US,US-GA,Statesboro,KTBR,TBR,TBR,-81.73690033,32.482700350000002,1373256
KTBN,medium_airport,Waynesville-St. Robert Regional Forney field,1159,NA,US,US-MO,Fort Leonard Wood,KTBN,TBN,TBN,-92.14070129,37.741600040000002,2925264
KT03,small_airport,Tuba City Airport,4513,NA,US,US-AZ,Tuba City,KT03,TBC,T03,-111.3830032,36.092800140000001,0476010
PATA,small_airport,Ralph M Calhoun Memorial Airport,236,NA,US,US-AK,Tanana,PATA,TAL,TAL,-152.1089935,65.174400329999997,0275160
KTAD,small_airport,Perry Stokes Airport,5762,NA,US,US-CO,Trinidad,KTAD,TAD,TAD,-104.3410034,37.259399410000000,0836940
SZP,small_airport,Santa Paula Airport,243,NA,US,US-CA,Santa Paula,KSZP,SZP,SZP,-119.060997,34.347198489999997,0670042
SZN,small_airport,Santa Cruz Island Airport,50,NA,US,US-CA,Santa Barbara,KSZN,SZN,SZN,-119.915321,34.060197000000002,0636868
KSZL,large_airport,Whiteman Air Force Base,870,NA,US,US-MO,Knob Noster,KSZL,SZL,SZL,-93.54789734,38.730300900000003,2979432
KSYV,small_airport,Sylvester Airport,403,NA,US,US-GA,Sylvester,KSYV,SYV,SYV,-83.89569855,31.558500290000001,1375188
KSYR,large_airport,Syracuse Hancock International Airport,421,NA,US,US-NY,Syracuse,KSYR,SYR,SYR,-76.10630035,43.111198430000002,3646151
SYN,small_airport,Stanton Airfield,920,NA,US,US-MN,Stanton,KSYN,SYN,SYN,-93.01629639,44.475498199999997,2753098
SYL,heliport,Roberts Army Heliport,630,NA,US,US-CA,Camp Roberts/San Miguel,KSYL,SYL,SYL,-120.7440033,35.814998629999998,0607974
KSYI,small_airport,Bomar Field Shelbyville Municipal Airport,801,NA,US,US-TN,Shelbyville,KSYI,SYI,SYI,-86.44249725,35.560100560000002,4767760
SYB,small_airport,Seal Bay Seaplane Base,0,NA,US,US-AK,Seal Bay,,SYB,,-152.2018,58.373300000000000,0258550
PASY,medium_airport,Eareckson Air Station,95,NA,US,US-AK,Shemya,PASY,SYA,SYA,174.113998400000014,52.712299350000002,0204670
KN23,small_airport,Sidney Municipal Airport,1027,NA,US,US-NY,Sidney,N23,SXY,N23,-75.41600037,42.302600859999998,3667334
PASX,medium_airport,Soldotna Airport,113,NA,US,US-AK,Soldotna,PASX,SXQ,SXQ,-151.0339966,60.475700379999999,0271640
SXP,small_airport,Nunam Iqua Airport,12,NA,US,US-AK,Nunam Iqua,,SXP,SXP,-164.848006,62.520598999999997,0256600
KSWW,small_airport,Avenger Field,2380,NA,US,US-TX,Sweetwater,KSWW,SWW,SWW,-100.4670029,32.467399600000000,4871540
KSWO,medium_airport,Stillwater Regional Airport,1000,NA,US,US-OK,Stillwater,KSWO,SWO,SWO,-97.08570099,36.161201480000003,4070300
KSWF,medium_airport,New York Stewart International Airport,491,NA,US,US-NY,Newburgh,KSWF,SWF,SWF,-74.104797,41.504100999999999,3655189
PAWD,medium_airport,Seward Airport,22,NA,US,US-AK,Seward,PAWD,SWD,SWD,-149.4190063,60.126899719999997,0268560
PASV,medium_airport,Sparrevohn LRRS Airport,1585,NA,US,US-AK,Sparrevohn,PASV,SVW,SVW,-155.5740051,61.097400669999999,0244030
SVS,small_airport,Stevens Village Airport,305,NA,US,US-AK,Stevens Village,SVS,SVS,SVS,-149.0545,66.017200000000003,0273290
KSVN,medium_airport,Hunter Army Air Field,41,NA,US,US-GA,Savannah,KSVN,SVN,SVN,-81.14569855,32.009998320000001,1369000
KSVH,small_airport,Statesville Regional Airport,968,NA,US,US-NC,Statesville,KSVH,SVH,SVH,-80.9539032,35.765300750000002,3764740
KSVE,small_airport,Susanville Municipal Airport,4149,NA,US,US-CA,Susanville,KSVE,SVE,SVE,-120.572998,40.375701900000003,0637484
KSVC,small_airport,Grant County Airport,5446,NA,US,US-NM,Silver City,KSVC,SVC,SVC,-108.154263,32.632292999999997,3533850
PASA,medium_airport,Savoonga Airport,53,NA,US,US-AK,Savoonga,PASA,SVA,SVA,-170.4929962,63.686401369999999,0267460
KSUX,large_airport,Sioux Gateway Airport/Brigadier General Bud Day Field,1098,NA,US,US-IA,Sioux City,KSUX,SUX,SUX,-96.384399,42.402599000000002,1971625
KSUW,small_airport,Richard I Bong Airport,674,NA,US,US-WI,Superior,KSUW,SUW,SUW,-92.09470367,46.689701079999999,5578650
KSUU,large_airport,Travis Air Force Base,62,NA,US,US-CA,Fairfield,KSUU,SUU,SUU,-121.927002,38.262699130000001,0675630
KSUS,large_airport,Spirit of St Louis Airport,463,NA,US,US-MO,St Louis,KSUS,SUS,SUS,-90.65200043,38.662101749999998,2978314
KS21,small_airport,Sunriver Airport,4164,NA,US,US-OR,Sunriver,S21,SUO,S21,-121.4530029,43.876300809999996,4171250
KSUN,medium_airport,Friedman Memorial Airport,5318,NA,US,US-ID,Hailey,KSUN,SUN,SUN,-114.2959976,43.504398350000002,1634390
KSMS,small_airport,Sumter Airport,182,NA,US,US-SC,Sumter,KSMS,SUM,SMS,-80.36129761,33.994998930000001,4548737
KSUE,small_airport,Door County Cherryland Airport,725,NA,US,US-WI,Sturgeon Bay,KSUE,SUE,SUE,-87.42150116,44.843700409999997,5577875
KSUD,small_airport,Stroud Municipal Airport,900,NA,US,US-OK,Stroud,KSUD,SUD,SUD,-96.65570068,35.789600370000002,4071000
KSUA,small_airport,Witham Field,16,NA,US,US-FL,Stuart,KSUA,SUA,SUA,-80.22109985,27.181699750000000,1268875
KSTS,medium_airport,Charles M. Schulz Sonoma County Airport,128,NA,US,US-CA,Santa Rosa,KSTS,STS,STS,-122.8130035,38.508998869999999,0685922
KOYM,small_airport,St Marys Municipal Airport,1934,NA,US,US-PA,St Marys,KOYM,STQ,OYM,-78.50260162,41.412498470000003,4267344
KSTP,medium_airport,St Paul Downtown Holman Field,705,NA,US,US-MN,St Paul,KSTP,STP,STP,-93.05999756,44.934501650000001,2758000
KSTL,large_airport,St Louis Lambert International Airport,618,NA,US,US-MO,St Louis,KSTL,STL,STL,-90.370003,38.748697000000000,2921376
KSTK,small_airport,Sterling Municipal Airport,4040,NA,US,US-CO,Sterling,KSTK,STK,STK,-103.2649994,40.615299219999997,0873935
KSTJ,medium_airport,Rosecrans Memorial Airport,826,NA,US,US-MO,St Joseph,KSTJ,STJ,STJ,-94.90969849,39.771900180000003,2020950
PAPB,medium_airport,St George Airport,125,NA,US,US-AK,St George,PAPB,STG,PBV,-169.6620026,56.578300480000003,0265800
KSTE,small_airport,Stevens Point Municipal Airport,1110,NA,US,US-WI,Stevens Point,KSTE,STE,STE,-89.53029633,44.545200350000002,5577200
KSTC,medium_airport,St Cloud Regional Airport,1031,NA,US,US-MN,St Cloud,KSTC,STC,STC,-94.05989838,45.546600339999998,2756896
7WA5,small_airport,Stuart Island Airpark,10,NA,US,US-WA,Stuart Island,7WA5,SSW,7WA5,-123.1760025,48.672901150000001,5325615
SSU,closed,Greenbrier Airport,1795,NA,US,US-WV,White Sulphur Springs,,SSU,,-80.336,37.774999999999999,5486812
KSSI,medium_airport,St Simons Island Airport,19,NA,US,US-GA,St Simons Island,KSSI,SSI,SSI,-81.391296,31.151800000000001,1368040
KSSF,medium_airport,Stinson Municipal Airport,577,NA,US,US-TX,San Antonio,KSSF,SSF,SSF,-98.47109985,29.336999890000001,4814716
KSSC,large_airport,Shaw Air Force Base,241,NA,US,US-SC,Sumter,KSSC,SSC,SSC,-80.47059631,33.972698209999997,4514018
KRUQ,small_airport,Mid-Carolina Regional Airport,772,NA,US,US-NC,Salisbury,KRUQ,SRW,RUQ,-80.520302,35.645901000000002,3758860
SRV,small_airport,Stony River 2 Airport,230,NA,US,US-AK,Stony River,SRV,SRV,SRV,-156.5890045,61.789699550000002,0273400
SRU,closed,Santa Cruz Sky Park,523,NA,US,US-CA,Scotts Valley,,SRU,,-122.0315,37.050300000000000,0670588
KSRQ,large_airport,Sarasota Bradenton International Airport,30,NA,US,US-FL,Sarasota/Bradenton,KSRQ,SRQ,SRQ,-82.55439758,27.395399090000002,1277467
SRF,closed,Hamilton Field,2,NA,US,US-CA,San Rafael,,SRF,,-122.51,38.060000000000002,0652582
KW28,small_airport,Sequim Valley Airport,144,NA,US,US-WA,Sequim,W28,SQV,W28,-123.1869965,48.098098749999998,5310075
KSQL,small_airport,San Carlos Airport,5,NA,US,US-CA,San Carlos,KSQL,SQL,SQL,-122.25,37.511901860000002,0665070
KSQI,small_airport,Whiteside County Airport-Joseph H Bittorf Field,648,NA,US,US-IL,Sterling/Rockfalls,KSQI,SQI,SQI,-89.67630005,41.742801669999999,1764928
KIZA,small_airport,Santa Ynez Airport,674,NA,US,US-CA,Santa Ynez,KIZA,SQA,IZA,-120.0759964,34.606800079999999,0670182
KASG,small_airport,Springdale Municipal Airport,1353,NA,US,US-AR,Springdale,KASG,SPZ,ASG,-94.11930084,36.176399230000001,0566080
KSPW,small_airport,Spencer Municipal Airport,1339,NA,US,US-IA,Spencer,KSPW,SPW,SPW,-95.20279694,43.165500639999998,1974280
KSPS,large_airport,Sheppard Air Force Base-Wichita Falls Municipal Airport,1019,NA,US,US-TX,Wichita Falls,KSPS,SPS,SPS,-98.491898,33.988799999999998,4813198
6CA3,heliport,Catalina Air-Sea Terminal Heliport,5,NA,US,US-CA,San Pedro,6CA3,SPQ,6CA3,-118.2750015,33.749198909999997,0642468
KSPI,large_airport,Abraham Lincoln Capital Airport,598,NA,US,US-IL,Springfield,KSPI,SPI,SPI,-89.67790222,39.844100949999998,1730835
KSPG,small_airport,Albert Whitted Airport,7,NA,US,US-FL,St Petersburg,KSPG,SPG,SPG,-82.626999,27.765100000000000,1263000
KSPF,small_airport,Black Hills Airport-Clyde Ice Field,3931,NA,US,US-SD,Spearfish,KSPF,SPF,SPF,-103.7829971,44.480300900000003,4660020
KSPA,small_airport,Spartanburg Downtown Memorial Airport,801,NA,US,US-SC,Spartanburg,KSPA,SPA,SPA,-81.95649719,34.915699009999997,4561720
KSOW,small_airport,Show Low Regional Airport,6415,NA,US,US-AZ,Show Low,KSOW,SOW,SOW,-110.0059967,34.265499120000001,0466470
PASO,small_airport,Seldovia Airport,29,NA,US,US-AK,Seldovia,PASO,SOV,SOV,-151.7039948,59.442401889999999,0268340
KSOP,small_airport,Moore County Airport,455,NA,US,US-NC,Pinehurst/Southern Pines,KSOP,SOP,SOP,-79.3911972,35.237400049999998,3773140
AK26,small_airport,Solomon State Field,25,NA,US,US-AK,Solomon,AK26,SOL,AK26,-164.4457,64.560500000000005,0254920
KSNY,medium_airport,Sidney Municipal-Lloyd W Carr Field,4313,NA,US,US-NE,Sidney,KSNY,SNY,SNY,-102.9850006,41.101299290000000,3145295
KSNS,medium_airport,Salinas Municipal Airport,85,NA,US,US-CA,Salinas,KSNS,SNS,SNS,-121.6060028,36.662799839999998,0664224
PASN,medium_airport,St Paul Island Airport,63,NA,US,US-AK,St Paul Island,PASN,SNP,SNP,-170.2200012,57.167301180000003,0266470
KSNL,small_airport,Shawnee Regional Airport,1073,NA,US,US-OK,Shawnee,KSNL,SNL,SNL,-96.94280243,35.357898710000001,4066800
KSNK,small_airport,Winston Field,2430,NA,US,US-TX,Snyder,KSNK,SNK,SNK,-100.9499969,32.693401340000001,4868624
KSNA,large_airport,John Wayne Airport-Orange County Airport,56,NA,US,US-CA,Santa Ana,KSNA,SNA,SNA,-117.8679962,33.675701140000001,0616532
KSMX,medium_airport,Santa Maria Pub/Capt G Allan Hancock Field,261,NA,US,US-CA,Santa Maria,KSMX,SMX,SMX,-120.4570007,34.898899080000000,0669196
PASP,small_airport,Sheep Mountain Airport,2750,NA,US,US-AK,Sheep Mountain,PASP,SMU,SMU,-147.5070038,61.812000269999999,0228590
KSMO,small_airport,Santa Monica Municipal Airport,170,NA,US,US-CA,Santa Monica,KSMO,SMO,SMO,-118.450996,34.015799999999999,0670000
KSMN,medium_airport,Lemhi County Airport,4043,NA,US,US-ID,Salmon,KSMN,SMN,SMN,-113.8809967,45.123798370000003,1671650
PAMK,small_airport,St Michael Airport,98,NA,US,US-AK,St Michael,PAMK,SMK,SMK,-162.1100006,63.490100859999998,0266360
KSMF,large_airport,Sacramento International Airport,27,NA,US,US-CA,Sacramento,KSMF,SMF,SMF,-121.5910034,38.695400239999998,0622524
KSME,medium_airport,Lake Cumberland Regional Airport,927,NA,US,US-KY,Somerset,KSME,SME,SME,-84.61589813,37.053398129999998,2127010
KSMD,small_airport,Smith Field,835,NA,US,US-IN,Fort Wayne,KSMD,SMD,SMD,-85.15280151,41.143398280000000,1825000
KANK,small_airport,Salida Airport Harriett Alexander Field,7523,NA,US,US-CO,Salida,KANK,SLT,ANK,-106.049004,38.538300000000000,0871625
KSLR,small_airport,Sulphur Springs Municipal Airport,489,NA,US,US-TX,Sulphur Springs,KSLR,SLR,SLR,-95.62110138,33.159801479999999,4870904
PASL,small_airport,Sleetmute Airport,190,NA,US,US-AK,Sleetmute,PASL,SLQ,SLQ,-157.1660004,61.700500490000003,0271090
KSLO,small_airport,Salem Leckrone Airport,573,NA,US,US-IL,Salem,KSLO,SLO,SLO,-88.96420288,38.642898559999999,1767236
KSLN,medium_airport,Salina Municipal Airport,1288,NA,US,US-KS,Salina,KSLN,SLN,SLN,-97.65219879,38.791000369999999,2062700
KSLK,medium_airport,Adirondack Regional Airport,1663,NA,US,US-NY,Saranac Lake,KSLK,SLK,SLK,-74.20619965,44.385299680000003,3656770
KSLG,small_airport,Smith Field,1191,NA,US,US-AR,Siloam Springs,KSLG,SLG,SLG,-94.48999786,36.191898350000002,0564370
KSLE,medium_airport,Salem Municipal Airport/McNary Field,214,NA,US,US-OR,Salem,KSLE,SLE,SLE,-123.0029984,44.909500119999997,4164900
KSLC,large_airport,Salt Lake City International Airport,4227,NA,US,US-UT,Salt Lake City,KSLC,SLC,SLC,-111.9779968,40.788398739999998,4967000
KSLB,small_airport,Storm Lake Municipal Airport,1488,NA,US,US-IA,Storm Lake,KSLB,SLB,SLB,-95.24069977,42.597301479999999,1942645
KSKY,closed,Griffing Sandusky Airport,580,NA,US,US-OH,Sandusky,KSKY,SKY,SKY,-82.65229797,41.433399199999997,3970380
PASW,small_airport,Skwentna Airport,148,NA,US,US-AK,Skwentna,PASW,SKW,SKW,-151.1909943,61.965301510000003,0270870
PFSH,small_airport,Shaktoolik Airport,24,NA,US,US-AK,Shaktoolik,PFSH,SKK,2C7,-161.223999,64.371101379999999,0268890
SKJ,closed,Sitkinak Airport,65,NA,US,US-AK,Sitkinak Island,,SKJ,SKJ,-154.1412,56.537799999999997,0200650
KSKF,medium_airport,Lackland Air Force Base,691,NA,US,US-TX,San Antonio,KSKF,SKF,SKF,-98.58110046,29.384199140000000,4840036
KSKA,large_airport,Fairchild Air Force Base,2461,NA,US,US-WA,Spokane,KSKA,SKA,SKA,-117.6559982,47.615100859999998,5322955
KSJT,medium_airport,San Angelo Regional Mathis Field,1919,NA,US,US-TX,San Angelo,KSJT,SJT,SJT,-100.4960022,31.357700349999998,4864472
KSJN,small_airport,St Johns Industrial Air Park,5737,NA,US,US-AZ,St Johns,KSJN,SJN,SJN,-109.3789978,34.518600460000002,0462350
KSJC,large_airport,Norman Y. Mineta San Jose International Airport,62,NA,US,US-CA,San Jose,KSJC,SJC,SJC,-121.929001,37.362597999999998,0669084
KSIV,small_airport,Sullivan County Airport,540,NA,US,US-IN,Monticello,KSIV,SIV,SIV,-87.44830322,39.114700319999997,1874006
PASI,medium_airport,Sitka Rocky Gutierrez Airport,21,NA,US,US-AK,Sitka,PASI,SIT,SIT,-135.3619995,57.047100069999999,0270540
KSIK,small_airport,Sikeston Memorial Municipal Airport,315,NA,US,US-MO,Sikeston,KSIK,SIK,SIK,-89.5617981,36.898899080000000,2948656
PAHX,small_airport,Shageluk Airport,79,NA,US,US-AK,Shageluk,PAHX,SHX,SHX,-159.5690002,62.692298889999996,0268670
KSHV,medium_airport,Shreveport Regional Airport,258,NA,US,US-LA,Shreveport,KSHV,SHV,SHV,-93.8256,32.446601999999999,2270000
KSHR,medium_airport,Sheridan County Airport,4021,NA,US,US-WY,Sheridan,KSHR,SHR,SHR,-106.9800034,44.769199370000003,5669845
KSHN,small_airport,Sanderson Field,273,NA,US,US-WA,Shelton,KSHN,SHN,SHN,-123.1480026,47.233600619999997,5363735
PASH,medium_airport,Shishmaref Airport,12,NA,US,US-AK,Shishmaref,PASH,SHH,SHH,-166.089112,66.249604000000005,0269770
PAGH,small_airport,Shungnak Airport,197,NA,US,US-AK,Shungnak,PAGH,SHG,SHG,-157.1620026,66.888099670000003,0270100
KSHD,small_airport,Shenandoah Valley Regional Airport,1201,NA,US,US-VA,Staunton/Waynesboro/Harrisonburg,KSHD,SHD,SHD,-78.89640045,38.263801569999998,5185184
PAGY,small_airport,Skagway Airport,44,NA,US,US-AK,Skagway,PAGY,SGY,SGY,-135.3159943,59.460098270000003,0270760
A23,seaplane_base,Saginaw Seaplane Base,0,NA,US,US-AK,Saginaw Bay,A23,SGW,A23,-134.1580048,56.886299129999998,0236770
KSGU,medium_airport,St George Municipal Airport,2941,NA,US,US-UT,St George,KSGU,SGU,SGU,-113.510306,37.036389000000000,4965330
KSGT,small_airport,Stuttgart Municipal Airport / Carl Humphrey Field,224,NA,US,US-AR,Stuttgart,KSGT,SGT,SGT,-91.574997,34.599499000000002,0570760
KSGR,medium_airport,Sugar Land Regional Airport,82,NA,US,US-TX,Houston,KSGR,SGR,SGR,-95.65650177,29.622299190000000,4870808
KSGH,medium_airport,Springfield-Beckley Municipal Airport,1051,NA,US,US-OH,Springfield,KSGH,SGH,SGH,-83.84020233,39.840301510000003,3916056
KSGF,large_airport,Springfield Branson National Airport,1268,NA,US,US-MO,Springfield,KSGF,SGF,SGF,-93.38860321,37.245700839999998,2979882
KSFZ,small_airport,North Central State Airport,441,NA,US,US-RI,Pawtucket,KSFZ,SFZ,SFZ,-71.49140167,41.920799260000003,4420260
SFR,closed,San Fernando Airport,1168,NA,US,US-CA,Los Angeles,,SFR,,-118.422,34.289000000000001,0666140
KSFO,large_airport,San Francisco International Airport,13,NA,US,US-CA,San Francisco,KSFO,SFO,SFO,-122.375,37.618999479999999,0647486
KSFM,small_airport,Sanford Seacoast Regional Airport,244,NA,US,US-ME,Sanford,KSFM,SFM,SFM,-70.70800018,43.393901820000004,2365725
KSFF,medium_airport,Felts Field,1953,NA,US,US-WA,Spokane,KSFF,SFF,SFF,-117.322998,47.682800290000003,5345985
KSFB,large_airport,Orlando Sanford International Airport,55,NA,US,US-FL,Orlando,KSFB,SFB,SFB,-81.23750305,28.777599330000001,1245475
KSER,small_airport,Freeman Municipal Airport,583,NA,US,US-IN,Seymour,KSER,SER,SER,-85.90740204,38.923599240000001,1868832
KSEP,small_airport,Stephenville Clark Regional Airport,1321,NA,US,US-TX,Stephenville,KSEP,SEP,SEP,-98.17769623,32.215301510000003,4870208
KSEM,small_airport,Craig Field,166,NA,US,US-AL,Selma,KSEM,SEM,SEM,-86.9878006,32.343898770000003,0169180
KSEG,small_airport,Penn Valley Airport,450,NA,US,US-PA,Selinsgrove,KSEG,SEG,SEG,-76.86389923,40.820598599999997,4236240
KSEF,small_airport,Sebring Regional Airport,62,NA,US,US-FL,Sebring,KSEF,SEF,SEF,-81.3423996,27.456399919999999,1264875
KSEE,small_airport,Gillespie Field,388,NA,US,US-CA,San Diego/El Cajon,KSEE,SEE,SEE,-116.9720001,32.826198580000003,0607624
KSEA,large_airport,Seattle Tacoma International Airport,433,NA,US,US-WA,Seattle,KSEA,SEA,SEA,-122.308998,47.449001000000003,5362288
KSDY,medium_airport,Sidney - Richland Regional Airport,1985,NA,US,US-MT,Sidney,KSDY,SDY,SDY,-104.193001,47.706901999999999,3067900
KSEZ,small_airport,Sedona Airport,4830,NA,US,US-AZ,Sedona,KSEZ,SDX,SEZ,-111.788002,34.848598480000000,0465350
PASD,medium_airport,Sand Point Airport,21,NA,US,US-AK,Sand Point,PASD,SDP,SDP,-160.522995,55.314998629999998,0267020
KSDM,medium_airport,Brown Field Municipal Airport,526,NA,US,US-CA,San Diego,KSDM,SDM,SDM,-116.9800034,32.572299960000002,0613392
KSDF,large_airport,Louisville Muhammad Ali International Airport,501,NA,US,US-KY,Louisville,KSDF,SDF,SDF,-85.736,38.174399999999999,2148648
SCR,closed,Scranton Municipal Airport.,1151,NA,US,US-PA,Scranton,,SCR,,-75.772,41.480200000000004,4213880
PACM,medium_airport,Scammon Bay Airport,14,NA,US,US-AK,Scammon Bay,PACM,SCM,SCM,-165.5709991,61.845298769999999,0267680
KSCK,medium_airport,Stockton Metropolitan Airport,33,NA,US,US-CA,Stockton,KSCK,SCK,SCK,-121.237999,37.894199370000003,0638065
KSCH,medium_airport,Schenectady County Airport,378,NA,US,US-NY,Schenectady,KSCH,SCH,SCH,-73.92890167,42.852500919999997,3622084
KSDL,small_airport,Scottsdale Airport,1510,NA,US,US-AZ,Scottsdale,KSDL,SCF,SDL,-111.9110031,33.622898100000000,0465000
KUNV,medium_airport,University Park Airport,1239,NA,US,US-PA,State College,KUNV,SCE,UNV,-77.84870148,40.849300380000003,4235888
PASC,medium_airport,Deadhorse Airport,65,NA,US,US-AK,Deadhorse,PASC,SCC,SCC,-148.4649963,70.194702149999998,0264380
KSCB,small_airport,Scribner State Airport,1325,NA,US,US-NE,Scribner,KSCB,SCB,SCB,-96.62989807,41.610298159999999,3144280
KSBY,medium_airport,Salisbury Ocean City Wicomico Regional Airport,52,NA,US,US-MD,Salisbury,KSBY,SBY,SBY,-75.51029968,38.340499880000003,2460425
KSBX,small_airport,Shelby Airport,3443,NA,US,US-MT,Shelby,KSBX,SBX,SBX,-111.8710022,48.540699009999997,3067450
KSBS,small_airport,Steamboat Springs Bob Adams Field,6882,NA,US,US-CO,Steamboat Springs,KSBS,SBS,SBS,-106.8659973,40.516300200000003,0873825
KSBP,medium_airport,San Luis County Regional Airport,212,NA,US,US-CA,San Luis Obispo,KSBP,SBP,SBP,-120.6419983,35.236801149999998,0644242
K44U,small_airport,Salina Gunnison Airport,5159,NA,US,US-UT,Salina,44U,SBO,44U,-111.8379974,39.029098509999997,4963240
KSBN,large_airport,South Bend Regional Airport,799,NA,US,US-IN,South Bend,KSBN,SBN,SBN,-86.31729889,41.708698269999999,1871000
KSBM,small_airport,Sheboygan County Memorial Airport,755,NA,US,US-WI,Sheboygan,KSBM,SBM,SBM,-87.85140228,43.769599909999997,5573025
KSBD,medium_airport,San Bernardino International Airport,1159,NA,US,US-CA,San Bernardino,KSBD,SBD,SBD,-117.2350006,34.095401760000001,0642370
KSBA,medium_airport,Santa Barbara Municipal Airport,13,NA,US,US-CA,Santa Barbara,KSBA,SBA,SBA,-119.8399963,34.426200870000002,0636868
KSAV,large_airport,Savannah Hilton Head International Airport,50,NA,US,US-GA,Savannah,KSAV,SAV,SAV,-81.20210266,32.127601620000000,1332048
KSAT,large_airport,San Antonio International Airport,809,NA,US,US-TX,San Antonio,KSAT,SAT,SAT,-98.469803,29.533701000000001,4813276
SAS,small_airport,Salton Sea Airport,-84,NA,US,US-CA,Salton City,KSAS,SAS,SAS,-115.9520035,33.241401670000002,0664294
KSAR,small_airport,Sparta Community Hunter Field,538,NA,US,US-IL,Sparta,KSAR,SAR,SAR,-89.69869995,38.148899080000000,1771448
KSAN,large_airport,San Diego International Airport,17,NA,US,US-CA,San Diego,KSAN,SAN,SAN,-117.1900024,32.733600619999997,0616378
KSAF,medium_airport,Santa Fe Municipal Airport,6348,NA,US,US-NM,Santa Fe,KSAF,SAF,SAF,-106.0889969,35.617099760000002,3536720
KSAD,small_airport,Safford Regional Airport,3179,NA,US,US-AZ,Safford,KSAD,SAD,SAD,-109.6350021,32.854801180000003,0468010
KSAC,medium_airport,Sacramento Executive Airport,24,NA,US,US-CA,Sacramento,KSAC,SAC,SAC,-121.4929962,38.512500760000002,0641142
KSAA,small_airport,Shively Field,7012,NA,US,US-WY,Saratoga,KSAA,SAA,SAA,-106.823997,41.444901000000002,5668685
KRZZ,closed,Halifax County Airport,256,NA,US,US-NC,Roanoke Rapids,KRZZ,RZZ,RZZ,-77.70929718,36.439498899999997,3763470
RZH,closed,Quartz Hill Airport,2465,NA,US,US-CA,Lancaster,,RZH,,-118.206,34.649999999999999,0659052
KRXE,small_airport,Rexburg Madison County Airport,4858,NA,US,US-ID,Rexburg,KRXE,RXE,RXE,-111.805002,43.833900000000000,1667420
KRWL,medium_airport,Rawlins Municipal Airport/Harvey Field,6813,NA,US,US-WY,Rawlins,KRWL,RWL,RWL,-107.1999969,41.805599209999997,5663900
KRWI,medium_airport,Rocky Mount Wilson Regional Airport,159,NA,US,US-NC,Rocky Mount,KRWI,RWI,RWI,-77.89189911,35.856300349999998,3761060
KRWF,medium_airport,Redwood Falls Municipal Airport,1024,NA,US,US-MN,Redwood Falls,KRWF,RWF,RWF,-95.08229828,44.547199249999998,2753656
KRVS,medium_airport,Richard Lloyd Jones Jr Airport,638,NA,US,US-OK,Tulsa,KRVS,RVS,RVS,-95.98459625,36.039600370000002,4037800
KU34,small_airport,Green River Municipal Airport,4225,NA,US,US-UT,Green River,KU34,RVR,U34,-110.2269974,38.961399080000000,4931670
KRUT,medium_airport,Rutland - Southern Vermont Regional Airport,787,NA,US,US-VT,Rutland,KRUT,RUT,RUT,-72.94960022,43.529399869999999,5075850
KSRR,medium_airport,Sierra Blanca Regional Airport,6814,NA,US,US-NM,Ruidoso,KSRR,RUI,SRR,-105.5350037,33.462799070000003,3511800
KRTN,small_airport,Raton Municipal-Crews Field,6352,NA,US,US-NM,Raton,KRTN,RTN,RTN,-104.5019989,36.741500850000001,3562060
US-0F3,small_airport,Spirit Lake Municipal Airport,1434,NA,US,US-IA,Spirit Lake,,RTL,0F3,-95.1391983,43.387500760000002,1958710
K21,seaplane_base,Rouses Point Seaplane Base,95,NA,US,US-NY,Rouses Point,K21,RSX,K21,-73.3635025,44.991699220000001,3663979
KRSW,large_airport,Southwest Florida International Airport,30,NA,US,US-FL,Fort Myers,KRSW,RSW,RSW,-81.75520325,26.536199570000001,1225655
KRST,large_airport,Rochester International Airport,1317,NA,US,US-MN,Rochester,KRST,RST,RST,-92.5,43.908298490000000,2762806
KRSN,small_airport,Ruston Regional Airport,311,NA,US,US-LA,Ruston,KRSN,RSN,RSN,-92.59169769,32.514400479999999,2266655
KRSL,medium_airport,Russell Municipal Airport,1862,NA,US,US-KS,Russell,KRSL,RSL,RSL,-98.8117981,38.872100830000001,2061825
W49,seaplane_base,Rosario Seaplane Base,,NA,US,US-WA,Rosario,W49,RSJ,W49,-122.8679962,48.645698549999999,5325615
PARS,small_airport,Russian Mission Airport,51,NA,US,US-AK,Russian Mission,PARS,RSH,RSH,-161.319458,61.778884890000000,0265700
KRRT,small_airport,Warroad International Memorial Airport,1076,NA,US,US-MN,Warroad,KRRT,RRT,RRT,-95.3483963,48.941398620000001,2768224
KRRL,small_airport,Merrill Municipal Airport,1318,NA,US,US-WI,Merrill,KRRL,RRL,RRL,-89.71289825,45.198898319999998,5551250
KRQO,small_airport,El Reno Regional Airport,1420,NA,US,US-OK,El Reno,KRQO,RQO,RQO,-98.00579834,35.472698209999997,4023700
KRPX,small_airport,Roundup Airport,3500,NA,US,US-MT,Roundup,KRPX,RPX,RPX,-108.541497,46.475095000000003,3064525
KROX,small_airport,Roseau Municipal Rudy Billberg Field,1060,NA,US,US-MN,Roseau,KROX,ROX,ROX,-95.6969986,48.855998990000003,2755546
KROW,medium_airport,Roswell Air Center Airport,3671,NA,US,US-NM,Roswell,KROW,ROW,ROW,-104.530998,33.301600999999998,3548480
K74V,small_airport,Roosevelt Municipal Airport,5172,NA,US,US-UT,Roosevelt,,ROL,74V,-110.051003,40.278300999999999,4964670
KROG,small_airport,Rogers Municipal Airport-Carter Field,1359,NA,US,US-AR,Rogers,KROG,ROG,ROG,-94.10690308,36.372299190000000,0540120
K1O5,small_airport,Montague-Yreka Rohrer Field,2527,NA,US,US-CA,Montague,K1O5,ROF,1O5,-122.5459976,41.730400090000003,0648690
KROC,large_airport,Greater Rochester International Airport,559,NA,US,US-NY,Rochester,KROC,ROC,ROC,-77.67240143,43.118900300000000,3628453
KROA,large_airport,RoanokeâBlacksburg Regional Airport,1175,NA,US,US-VA,Roanoke,KROA,ROA,ROA,-79.975403,37.325499999999998,5137880
KRZL,small_airport,Jasper County Airport,698,NA,US,US-IN,Rensselaer,KRZL,RNZ,RZL,-87.18260193,40.947898860000002,1863792
KRNT,small_airport,Renton Municipal Airport,32,NA,US,US-WA,Renton,KRNT,RNT,RNT,-122.2160034,47.493099209999997,5308552
KRNO,large_airport,Reno Tahoe International Airport,4415,NA,US,US-NV,Reno,KRNO,RNO,RNO,-119.7679977,39.499099729999998,3260600
KRND,large_airport,Randolph Air Force Base,761,NA,US,US-TX,Universal City,KRND,RND,RND,-98.27890015,29.529699330000000,4860608
KRNC,small_airport,Warren County Memorial Airport,1032,NA,US,US-TN,Mc Minnville,KRNC,RNC,RNC,-85.84380341,35.698699949999998,4745100
KMPI,small_airport,Mariposa Yosemite Airport,2254,NA,US,US-CA,Mariposa,KMPI,RMY,MPI,-120.0400009,37.510898589999996,0645932
RMP,small_airport,Rampart Airport,302,NA,US,US-AK,Rampart,,RMP,RMP,-150.141007,65.507896000000002,0264820
KRMG,medium_airport,Richard B Russell Airport,644,NA,US,US-GA,Rome,KRMG,RMG,RMG,-85.15799713,34.350601200000000,1369868
KRME,medium_airport,Griffiss International Airport,504,NA,US,US-NY,Rome,KRME,RME,RME,-75.40699768,43.233798980000003,3663418
K07,small_airport,Rolla Downtown Airport,987,NA,US,US-MO,Rolla,K07,RLA,K07,-91.81349945,37.935699460000002,2962912
KRKW,small_airport,Rockwood Municipal Airport,1664,NA,US,US-TN,Rockwood,KRKW,RKW,RKW,-84.68969727,35.922298429999998,4764440
KRKS,medium_airport,Southwest Wyoming Regional Airport,6764,NA,US,US-WY,Rock Springs,KRKS,RKS,RKS,-109.065001,41.594200000000001,5603652
KRKP,small_airport,Aransas County Airport,24,NA,US,US-TX,Rockport,KRKP,RKP,RKP,-97.04460144,28.086799620000001,4827888
KUZA,small_airport,Rock Hill - York County Airport,666,NA,US,US-SC,Rock Hill,KUZA,RKH,UZA,-81.05719757,34.987800600000000,4535635
KRKD,small_airport,Knox County Regional Airport,56,NA,US,US-ME,Rockland,KRKD,RKD,RKD,-69.09919739,44.060100560000002,2376330
KRIW,medium_airport,Riverton Regional Airport,5525,NA,US,US-WY,Riverton,KRIW,RIW,RIW,-108.4599991,43.064201359999998,5666220
KRIV,medium_airport,March ARB Airport,1536,NA,US,US-CA,Riverside,KRIV,RIV,RIV,-117.259003,33.880699000000000,0645680
KRIL,medium_airport,Garfield County Regional Airport,5548,NA,US,US-CO,Rifle,KRIL,RIL,RIL,-107.726997,39.526299000000002,0864255
KRPD,small_airport,Rice Lake Regional Airport - Carl's Field,1109,NA,US,US-WI,Rice Lake,KRPD,RIE,RPD,-91.773499,45.418998999999999,5512250
KRIC,large_airport,Richmond International Airport,167,NA,US,US-VA,Richmond,KRIC,RIC,RIC,-77.31970215,37.505199429999998,5170256
KRHV,small_airport,Reid-Hillview Airport of Santa Clara County,135,NA,US,US-CA,San Jose,KRHV,RHV,RHV,-121.8190002,37.332901000000000,0601458
KRHI,medium_airport,Rhinelander Oneida County Airport,1624,NA,US,US-WI,Rhinelander,KRHI,RHI,RHI,-89.46749878,45.631198879999999,5567200
F23,small_airport,Ranger Municipal Airport,1470,NA,US,US-TX,Ranger,F23,RGR,F23,-98.68280029,32.452598569999999,4860632
KRFG,small_airport,Rooke Field,56,NA,US,US-TX,Refugio,KRFG,RFG,RFG,-97.322998,28.293600000000001,4861436
KRFD,large_airport,Chicago Rockford International Airport,742,NA,US,US-IL,Chicago/Rockford,KRFD,RFD,RFD,-89.09719849,42.195400239999998,1752701
KREO,small_airport,Rome State Airport,4053,NA,US,US-OR,Rome,KREO,REO,REO,-117.8850021,42.577701570000002,3244000
REH,closed,Rehoboth Airport,30,NA,US,US-DE,Rehoboth Beach,,REH,,-75.122,38.719999999999999,1033900
8XS8,small_airport,Reese Airpark,3338,NA,US,US-TX,Lubbock,8XS8,REE,8XS8,-102.0370026,33.590301510000003,4879972
KRVL,small_airport,Mifflin County Airport,819,NA,US,US-PA,Reedsville,KRVL,RED,RVL,-77.62680054,40.677398680000003,4245452
RDV,small_airport,Red Devil Airport,174,NA,US,US-AK,Red Devil,RDV,RDV,RDV,-157.3500061,61.788101200000000,0264930
KRDU,large_airport,Raleigh Durham International Airport,435,NA,US,US-NC,Raleigh/Durham,KRDU,RDU,RDU,-78.78749847,35.877601620000000,3744520
KRDR,medium_airport,Grand Forks Air Force Base,913,NA,US,US-ND,Grand Forks,KRDR,RDR,RDR,-97.40119934,47.961101530000001,3832140
KRDM,medium_airport,Roberts Field,3080,NA,US,US-OR,Redmond,KRDM,RDM,RDM,-121.1500015,44.254100800000003,4161200
KRDG,medium_airport,Reading Regional Carl A Spaatz Field,344,NA,US,US-PA,Reading,KRDG,RDG,RDG,-75.96520233,40.378501890000003,4265192
KRDD,medium_airport,Redding Municipal Airport,505,NA,US,US-CA,Redding,KRDD,RDD,RDD,-122.2929993,40.508998869999999,0602042
PADG,small_airport,Red Dog Airport,969,NA,US,US-AK,Red Dog,PADG,RDB,DGG,-162.8990021,68.032096859999996,0264980
KRCT,small_airport,Nartron Field,1055,NA,US,US-MI,Reed City,KRCT,RCT,RCT,-85.51670074,43.900001529999997,2667820
KRCR,small_airport,Fulton County Airport,790,NA,US,US-IN,Rochester,KRCR,RCR,RCR,-86.18170166,41.065601350000001,1865214
KRCK,small_airport,H H Coffield Regional Airport,474,NA,US,US-TX,Rockdale,KRCK,RCK,RCK,-96.98970032,30.631599430000001,4862672
WA09,small_airport,Roche Harbor Airport,100,NA,US,US-WA,Roche Harbor,WA09,RCE,WA09,-123.1389999,48.612300869999999,5325615
KRCA,medium_airport,Ellsworth Air Force Base,3276,NA,US,US-SD,Rapid City,KRCA,RCA,RCA,-103.1039963,44.145000459999999,4602530
PARY,medium_airport,Ruby Airport,658,NA,US,US-AK,Ruby,PARY,RBY,RBY,-155.4700012,64.727203369999998,0265590
KRBW,small_airport,Lowcountry Regional Airport,101,NA,US,US-SC,Walterboro,KRBW,RBW,RBW,-80.64060211,32.921001429999997,4574275
KRBL,medium_airport,Red Bluff Municipal Airport,352,NA,US,US-CA,Red Bluff,KRBL,RBL,RBL,-122.2519989,40.150699619999997,0659892
KF70,small_airport,French Valley Airport,1350,NA,US,US-CA,Murrieta/Temecula,F70,RBK,F70,-117.1279984,33.574199680000000,0626067
KRBG,small_airport,Roseburg Regional Airport,529,NA,US,US-OR,Roseburg,KRBG,RBG,RBG,-123.3560028,43.238800050000002,4163650
KL35,small_airport,Big Bear City Airport,6752,NA,US,US-CA,Big Bear,L35,RBF,L35,-116.8560028,34.263801569999998,0606434
KRBD,small_airport,Dallas Executive Airport,660,NA,US,US-TX,Dallas,KRBD,RBD,RBD,-96.86820221,32.680900569999999,4821628
KRAP,medium_airport,Rapid City Regional Airport,3204,NA,US,US-SD,Rapid City,KRAP,RAP,RAP,-103.0569992,44.045299530000001,4626035
KRAL,medium_airport,Riverside Municipal Airport,819,NA,US,US-CA,Riverside,KRAL,RAL,RAL,-117.4449997,33.951900479999999,0662000
KRAC,small_airport,John H Batten Airport,674,NA,US,US-WI,Racine,KRAC,RAC,RAC,-87.81520081,42.760601039999997,5557700
K8A6,small_airport,Wilgrove Air Park,799,NA,US,US-NC,Charlotte,K8A6,QWG,8A6,-80.67009735,35.213798519999997,3743480
6N7,seaplane_base,New York Skyports Inc Seaplane Base,,NA,US,US-NY,New York,,QNY,6N7,-73.9729,40.734000999999999,3432250
KPYM,small_airport,Plymouth Municipal Airport,148,NA,US,US-MA,Plymouth,KPYM,PYM,PYM,-70.728798,41.908999999999999,2554275
PYL,seaplane_base,Perry Island Seaplane Base,0,NA,US,US-AK,Perry Island,PYL,PYL,PYL,-147.9190063,60.685298920000001,0284510
KP10,small_airport,Polacca Airport,5573,NA,US,US-AZ,Polacca,P10,PXL,P10,-110.4229965,35.791698459999999,0465280
KPNA,medium_airport,Ralph Wenz Field,7102,NA,US,US-WY,Pinedale,KPNA,PWY,PNA,-109.8069992,42.795501710000003,5661580
KPWT,medium_airport,Bremerton National Airport,444,NA,US,US-WA,Bremerton,KPWT,PWT,PWT,-122.7649994,47.490200039999998,5327680
PWR,seaplane_base,Port Walter Seaplane Base,0,NA,US,US-AK,Port Walter,PWR,PWR,PWR,-134.651001,56.381000520000001,0262510
KPWM,large_airport,Portland International Jetport,76,NA,US,US-ME,Portland,KPWM,PWM,PWM,-70.309303,43.646197999999998,2371990
KPWK,medium_airport,Chicago Executive Airport,647,NA,US,US-IL,Chicago/Prospect Heights/Wheeling,KPWK,PWK,PWK,-87.901494,42.114221999999998,1762016
KPWD,small_airport,Sher-Wood Airport,2250,NA,US,US-MT,Plentywood,KPWD,PWD,PWD,-104.5339966,48.790298460000002,3058375
KPWA,small_airport,Wiley Post Airport,1300,NA,US,US-OK,Oklahoma City,KPWA,PWA,PWA,-97.64710236,35.534198760000002,4078500
KPVZ,closed,Casement Airport,699,NA,US,US-OH,Plainesville,KPVZ,PVZ,PVZ,-81.21920013,41.733600619999997,3959416
KPVW,small_airport,Hale County Airport,3374,NA,US,US-TX,Plainview,KPVW,PVW,PVW,-101.7170029,34.168098450000002,4857980
KPVU,medium_airport,Provo Municipal Airport,4497,NA,US,US-UT,Provo,KPVU,PVU,PVU,-111.7229996,40.219200129999997,4962470
KPBX,small_airport,Pike County-Hatcher Field,1473,NA,US,US-KY,Pikeville,KPBX,PVL,PBX,-82.56639862,37.561798099999997,2116110
KPVF,small_airport,Placerville Airport,2585,NA,US,US-CA,Placerville,KPVF,PVF,PVF,-120.7529984,38.724201200000003,0657540
KPVD,large_airport,Theodore Francis Green State Airport,55,NA,US,US-RI,Providence,KPVD,PVD,PVD,-71.420403,41.732601000000003,4474300
KPVC,small_airport,Provincetown Municipal Airport,9,NA,US,US-MA,Provincetown,KPVC,PVC,PVC,-70.2213974,42.071899410000000,2555535
KPUW,medium_airport,Pullman Moscow Regional Airport,2556,NA,US,US-WA,Pullman/Moscow,KPUW,PUW,PUW,-117.110001,46.743899999999996,5356625
83Q,seaplane_base,Port of Poulsbo Marina Moorage Seaplane Base,0,NA,US,US-WA,Poulsbo,83Q,PUL,83Q,-122.6470032,47.734001159999998,5355995
KPUC,small_airport,Carbon County Regional/Buck Davis Field,5957,NA,US,US-UT,Price,KPUC,PUC,PUC,-110.7509995,39.613899230000001,4962030
KPUB,small_airport,Pueblo Memorial Airport,4726,NA,US,US-CO,Pueblo,KPUB,PUB,PUB,-104.4970016,38.289100650000002,0881305
KPTW,small_airport,Heritage Field,309,NA,US,US-PA,Pottstown,KPTW,PTW,PTW,-75.556702,40.239601000000000,4267712
KPTV,small_airport,Porterville Municipal Airport,442,NA,US,US-CA,Porterville,KPTV,PTV,PTV,-119.0630035,36.029598239999999,0658240
PAPM,medium_airport,Platinum Airport,15,NA,US,US-AK,Platinum,PAPM,PTU,PTU,-161.8200073,59.011398319999998,0261080
KPTT,small_airport,Pratt Regional Airport,1953,NA,US,US-KS,Pratt,KPTT,PTT,PTT,-98.74690247,37.701599119999997,2057625
KPTN,small_airport,Harry P Williams Memorial Airport,9,NA,US,US-LA,Patterson,KPTN,PTN,PTN,-91.33899689,29.709499359999999,2259340
KPTK,medium_airport,Oakland County International Airport,980,NA,US,US-MI,Pontiac,KPTK,PTK,PTK,-83.42009735,42.665500639999998,2682450
PAPH,medium_airport,Port Heiden Airport,95,NA,US,US-AK,Port Heiden,PAPH,PTH,PTH,-158.6329956,56.959098820000001,0263390
PAAP,seaplane_base,Port Alexander Seaplane Base,,NA,US,US-AK,Port Alexander,PAAP,PTD,AHP,-134.647995,56.246799469999999,0262510
16K,seaplane_base,Port Alice Seaplane Base,0,NA,US,US-AK,Port Alice,16K,PTC,16K,-133.597,55.802999999999997,0220970
KPTB,small_airport,Dinwiddie County Airport,193,NA,US,US-VA,Petersburg,KPTB,PTB,PTB,-77.50740051,37.183799739999998,5150136
TPO,small_airport,Port Alsworth Airport,280,NA,US,US-AK,Port Alsworth,PALJ,PTA,TPO,-154.325863,60.201681000000001,0262620
KPSX,small_airport,Palacios Municipal Airport,14,NA,US,US-TX,Palacios,KPSX,PSX,PSX,-96.25099945,28.727500920000001,4854684
9N2,seaplane_base,Philadelphia Seaplane Base,0,NA,US,US-PA,Essington,9N2,PSQ,9N2,-75.29959869,39.859001159999998,4222296
KPSP,medium_airport,Palm Springs International Airport,477,NA,US,US-CA,Palm Springs,KPSP,PSP,PSP,-116.5070038,33.829700469999999,0612048
KPSN,small_airport,Palestine Municipal Airport,423,NA,US,US-TX,Palestine,KPSN,PSN,PSN,-95.70629883,31.779699330000000,4854708
KPSM,medium_airport,Portsmouth International at Pease Airport,100,NA,US,US-NH,Portsmouth,KPSM,PSM,PSM,-70.82330322,43.077899930000001,3362900
KPSK,small_airport,New River Valley Airport,2105,NA,US,US-VA,Dublin,KPSK,PSK,PSK,-80.67849731,37.137298580000000,5123648
PAPG,medium_airport,Petersburg James A Johnson Airport,111,NA,US,US-AK,Petersburg,PAPG,PSG,PSG,-132.9450073,56.801700590000003,0242160
KPSF,small_airport,Pittsfield Municipal Airport,1194,NA,US,US-MA,Pittsfield,KPSF,PSF,PSF,-73.2929,42.426800000000000,2553960
KPSC,medium_airport,Tri Cities Airport,410,NA,US,US-WA,Pasco,KPSC,PSC,PSC,-119.1190033,46.264701840000001,5353545
KS39,small_airport,Prineville Airport,3250,NA,US,US-OR,Prineville,S39,PRZ,S39,-120.9039993,44.286998750000002,4159850
KPRX,medium_airport,Cox Field,547,NA,US,US-TX,Paris,KPRX,PRX,PRX,-95.45079803,33.636600489999999,4861592
K5N2,small_airport,Prentice Airport,1578,NA,US,US-WI,Prentice,,PRW,5N2,-90.279297,45.542999000000002,5565325
KPRO,small_airport,Perry Municipal Airport,1013,NA,US,US-IA,Perry,KPRO,PRO,PRO,-94.15989685,41.827999110000000,1919135
KPRC,medium_airport,Prescott Regional Airport - Ernest A. Love Field,5045,NA,US,US-AZ,Prescott,KPRC,PRC,PRC,-112.419998,34.654499000000001,0457380
KPRB,medium_airport,Paso Robles Municipal Airport,840,NA,US,US-CA,Paso Robles,KPRB,PRB,PRB,-120.6269989,35.672901150000001,0622300
0AK,small_airport,Pilot Station Airport,305,NA,US,US-AK,Pilot Station,,PQS,0AK,-162.899994,61.934601000000001,0260750
KPQI,medium_airport,Presque Isle International Airport,534,NA,US,US-ME,Presque Isle,KPQI,PQI,PQI,-68.0448,46.688999000000003,2360825
19P,seaplane_base,Port Protection Seaplane Base,0,NA,US,US-AK,Port Protection,19P,PPV,19P,-133.6100006,56.328800200000003,0263870
KPMP,small_airport,Pompano Beach Airpark,19,NA,US,US-FL,Pompano Beach,KPMP,PPM,PMP,-80.11109924,26.247100830000001,1258050
KPPF,small_airport,Tri-City Airport,900,NA,US,US-KS,Parsons,KPPF,PPF,PPF,-95.5062027,37.329898829999998,2012925
PAPR,small_airport,Prospect Creek Airport,1095,NA,US,US-AK,Prospect Creek,PAPR,PPC,PPC,-150.6439972,66.814102169999998,0223790
KPPA,small_airport,Perry Lefors Field,3245,NA,US,US-TX,Pampa,KPPA,PPA,PPA,-100.9960022,35.612998959999999,4854912
KPOY,small_airport,Powell Municipal Airport,5092,NA,US,US-WY,Powell,KPOY,POY,POY,-108.7929993,44.867198940000002,5662450
KPOU,medium_airport,Dutchess County Airport,165,NA,US,US-NY,Poughkeepsie,KPOU,POU,POU,-73.88420105,41.626598360000003,3660983
KPOF,small_airport,Poplar Bluff Municipal Airport,331,NA,US,US-MO,Poplar Bluff,KPOF,POF,POF,-90.32489777,36.773899080000000,2959096
KPOE,medium_airport,Polk Army Air Field,330,NA,US,US-LA,Fort Polk,KPOE,POE,POE,-93.1917038,31.044799800000000,2226757
KPOC,small_airport,Brackett Field,1011,NA,US,US-CA,La Verne,KPOC,POC,POC,-117.7819977,34.091598509999997,0666070
KPOB,medium_airport,Pope Field,217,NA,US,US-NC,Fayetteville,KPOB,POB,POB,-79.01450348,35.170898440000002,3764180
KGYI,small_airport,North Texas Regional Airport/Perrin Field,749,NA,US,US-TX,Sherman/Denison,KGYI,PNX,GYI,-96.67369843,33.714099879999999,4839680
KU55,small_airport,Panguitch Municipal Airport,6763,NA,US,US-UT,Panguitch,U55,PNU,U55,-112.3919983,37.845199579999999,4957740
KPNS,medium_airport,Pensacola International Airport,121,NA,US,US-FL,Pensacola,KPNS,PNS,PNS,-87.1866,30.473400000000002,1255925
KPNN,small_airport,Princeton Municipal Airport,266,NA,US,US-ME,Princeton,KPNN,PNN,PNN,-67.56439972,45.200698850000002,2387250
KPNE,medium_airport,Northeast Philadelphia Airport,120,NA,US,US-PA,Philadelphia,KPNE,PNE,PNE,-75.010597,40.081901999999999,4216272
KPNC,medium_airport,Ponca City Regional Airport,1008,NA,US,US-OK,Ponca City,KPNC,PNC,PNC,-97.09980011,36.731998439999998,4059850
13MA,small_airport,Metropolitan Airport,418,NA,US,US-MA,Palmer,13MA,PMX,13MA,-72.31140137,42.223300930000001,2552144
PAAL,small_airport,Port Moller Airport,20,NA,US,US-AK,Cold Bay,PAAL,PML,1AK3,-160.5610046,56.006000520000001,0252940
KPMH,small_airport,Greater Portsmouth Regional Airport,663,NA,US,US-OH,Portsmouth,KPMH,PMH,PMH,-82.84729767,38.840499880000003,3950876
KPMD,medium_airport,Palmdale Regional/USAF Plant 42 Airport,2543,NA,US,US-CA,Palmdale,KPMD,PMD,PMD,-118.0849991,34.629398350000002,0655156
KPMB,small_airport,Pembina Municipal Airport,795,NA,US,US-ND,Pembina,KPMB,PMB,PMB,-97.24079895,48.942501069999999,3861580
KC65,small_airport,Plymouth Municipal Airport,800,NA,US,US-IN,Plymouth,C65,PLY,C65,-86.30049896,41.365100859999998,1860822
KPLR,small_airport,St Clair County Airport,485,NA,US,US-AL,Pell City,KPLR,PLR,PLR,-86.24909973,33.558799739999998,0158896
KPLN,medium_airport,Pellston Regional Airport of Emmet County Airport,721,NA,US,US-MI,Pellston,KPLN,PLN,PLN,-84.79669952,45.570899959999998,2663300
KPLK,small_airport,M. Graham Clark Downtown Airport,940,NA,US,US-MO,Branson / Hollister,KPLK,PLK,PLK,-93.22889709,36.625900270000002,2932662
KPLB,closed,Clinton County Airport,371,NA,US,US-NY,Plattsburgh,KPLB,PLB,PLB,-73.52449799,44.687500000000000,3658601
KPKF,small_airport,Park Falls Municipal Airport,1500,NA,US,US-WI,Park Falls,KPKF,PKF,PKF,-90.42440033,45.955001830000000,5561200
KPKD,small_airport,Park Rapids Municipal Konshok Field,1445,NA,US,US-MN,Park Rapids,KPKD,PKD,PKD,-95.073095,46.900599999999997,2749768
KPKB,medium_airport,Mid Ohio Valley Regional Airport,858,NA,US,US-WV,Parkersburg,KPKB,PKB,PKB,-81.43920135,39.345100400000000,5408836
PAPK,small_airport,Napaskiak Airport,24,NA,US,US-AK,Napaskiak,PAPK,PKA,PKA,-161.7779999,60.702899930000001,0252720
KPAN,small_airport,Payson Airport,5157,NA,US,US-AZ,Payson,KPAN,PJB,PAN,-111.3389969,34.256801609999997,0453700
PPIZ,medium_airport,Point Lay LRRS Airport,22,NA,US,US-AK,Point Lay,PPIZ,PIZ,PIZ,-163.0050049,69.732902530000004,0261700
KPIT,large_airport,Pittsburgh International Airport,1203,NA,US,US-PA,Pittsburgh,KPIT,PIT,PIT,-80.23290253,40.491500850000001,4211348
KPIR,medium_airport,Pierre Regional Airport,1744,NA,US,US-SD,Pierre,KPIR,PIR,PIR,-100.2860031,44.382701869999998,4649600
PAPN,small_airport,Pilot Point Airport,57,NA,US,US-AK,Pilot Point,PAPN,PIP,PNP,-157.5720062,57.580398559999999,0260640
KPIM,small_airport,Harris County Airport,902,NA,US,US-GA,Pine Mountain,KPIM,PIM,PIM,-84.88240051,32.840698240000002,1361124
KPIH,medium_airport,Pocatello Regional Airport,4452,NA,US,US-ID,Pocatello,KPIH,PIH,PIH,-112.5960007,42.909801479999999,1602935
KPIE,medium_airport,St Petersburg Clearwater International Airport,11,NA,US,US-FL,St Petersburg-Clearwater,KPIE,PIE,PIE,-82.68740082,27.910200119999999,1221945
KPIB,medium_airport,Hattiesburg Laurel Regional Airport,298,NA,US,US-MS,Hattiesburg/Laurel,KPIB,PIB,PIB,-89.33709717,31.467100139999999,2861080
KPIA,large_airport,General Wayne A. Downing Peoria International Airport,660,NA,US,US-IL,Peoria,KPIA,PIA,PIA,-89.69329834,40.664199830000001,1704871
KPHX,large_airport,Phoenix Sky Harbor International Airport,1135,NA,US,US-AZ,Phoenix,KPHX,PHX,PHX,-112.012001,33.434299469999999,0430270
KPHT,small_airport,Henry County Airport,580,NA,US,US-TN,Paris,KPHT,PHT,PHT,-88.38289642,36.338199619999997,4756720
KPHP,small_airport,Philip Airport,2207,NA,US,US-SD,Philip,KPHP,PHP,PHP,-101.598999,44.048599240000001,4649300
PAPO,small_airport,Point Hope Airport,12,NA,US,US-AK,Point Hope,PAPO,PHO,PHO,-166.798996,68.348800659999995,0261630
KPHN,small_airport,St Clair County International Airport,650,NA,US,US-MI,Port Huron,KPHN,PHN,PHN,-82.52890015,42.910999300000000,2652080
KPHL,large_airport,Philadelphia International Airport,36,NA,US,US-PA,Philadelphia,KPHL,PHL,PHL,-75.2410965,39.871898649999999,3457150
KPHK,small_airport,Palm Beach County Glades Airport,16,NA,US,US-FL,Pahokee,KPHK,PHK,PHK,-80.69339752,26.784999849999998,1253800
KPHF,large_airport,Newport News Williamsburg International Airport,42,NA,US,US-VA,Newport News,KPHF,PHF,PHF,-76.49299622,37.131900790000003,5156000
KPHD,small_airport,Harry Clever Field,894,NA,US,US-OH,New Philadelphia,KPHD,PHD,PHD,-81.41970062,40.470901490000003,3955216
KPGV,medium_airport,Pitt Greenville Airport,26,NA,US,US-NC,Greenville,KPGV,PGV,PGV,-77.38529968,35.635200500000003,3728080
KPGR,small_airport,Kirk Field,290,NA,US,US-AR,Paragould,KPGR,PGR,PGR,-90.50779724,36.062900540000001,0553390
KPSO,small_airport,Stevens Field,7664,NA,US,US-CO,Pagosa Springs,KPSO,PGO,PSO,-107.0559998,37.286300660000002,0856860
PGM,small_airport,Port Graham Airport,93,NA,US,US-AK,Port Graham,PGM,PGM,PGM,-151.8320007,59.348300930000001,0263280
KPQL,small_airport,Trent Lott International Airport,17,NA,US,US-MS,Pascagoula,KPQL,PGL,PQL,-88.52919769,30.462799069999999,2831460
KPGD,small_airport,Charlotte County Airport,26,NA,US,US-FL,Punta Gorda,KPGD,PGD,PGD,-81.9905014,26.920200349999998,1212950
KW99,small_airport,Grant County Airport,963,NA,US,US-WV,Petersburg,W99,PGC,W99,-79.14589691,38.994899750000002,5462956
KPGA,medium_airport,Page Municipal Airport,4316,NA,US,US-AZ,Page,KPGA,PGA,PGA,-111.447998,36.926101680000002,0451810
PFC,small_airport,Pacific City State Airport,5,NA,US,US-OR,Pacific City,KPFC,PFC,PFC,-123.961998,45.199798580000000,4156150
KPEQ,small_airport,Pecos Municipal Airport,2613,NA,US,US-TX,Pecos,KPEQ,PEQ,PEQ,-103.5110016,31.382400510000000,4856516
PEC,seaplane_base,Pelican Seaplane Base,0,NA,US,US-AK,Pelican,PEC,PEC,PEC,-136.2359924,57.955200200000000,0259650
KPDX,large_airport,Portland International Airport,31,NA,US,US-OR,Portland,KPDX,PDX,PDX,-122.5979996,45.588699339999998,4146730
KPDT,medium_airport,Eastern Oregon Regional At Pendleton Airport,1497,NA,US,US-OR,Pendleton,KPDT,PDT,PDT,-118.8410034,45.695098880000003,4157150
KPDK,medium_airport,DeKalb Peachtree Airport,1003,NA,US,US-GA,Atlanta,KPDK,PDK,PDK,-84.30200195,33.875598910000001,1315172
4K0,small_airport,Pedro Bay Airport,45,NA,US,US-AK,Pedro Bay,4K0,PDB,4K0,-154.1239929,59.789600370000002,0259540
KM13,small_airport,Poplarville Pearl River County Airport,320,NA,US,US-MS,Poplarville,M13,PCU,M13,-89.50450134,30.785999300000000,2859480
K39N,small_airport,Princeton Airport,128,NA,US,US-NJ,Princeton/Rocky Hill,39N,PCT,39N,-74.6588974,40.399200440000001,3464320
KPDC,small_airport,Prairie Du Chien Municipal Airport,661,NA,US,US-WI,Prairie Du Chien,KPDC,PCD,PDC,-91.123703,43.019298550000002,5565050
PAOC,small_airport,Portage Creek Airport,137,NA,US,US-AK,Portage Creek,PAOC,PCA,A14,-157.714,58.906500000000001,0262285
KPBI,large_airport,Palm Beach International Airport,19,NA,US,US-FL,West Palm Beach,KPBI,PBI,PBI,-80.09559631,26.683200840000001,1228305
KPBG,medium_airport,Plattsburgh International Airport,234,NA,US,US-NY,Plattsburgh,KPBG,PBG,PBG,-73.4681015,44.650901789999999,3656291
KPBF,medium_airport,"Pine Bluff Regional Airport, Grider Field",206,NA,US,US-AR,Pine Bluff,KPBF,PBF,PBF,-91.9356,34.173099999999998,0555310
PAAQ,medium_airport,"Warren """"Bud"""" Woods Palmer Municipal Airport",242,NA,US,US-AK,Palmer,PAAQ,PAQ,PAQ,-149.08901,61.594898000000001,0258660
KPAO,small_airport,Palo Alto Airport of Santa Clara County,4,NA,US,US-CA,Palo Alto,KPAO,PAO,PAO,-122.1149979,37.461101530000001,0620956
KPAM,large_airport,Tyndall Air Force Base,17,NA,US,US-FL,Panama City,KPAM,PAM,PAM,-85.57540131,30.069599149999998,1272875
PHPA,small_airport,Port Allen Airport,24,NA,US,US-HI,Hanapepe,PHPA,PAK,PAK,-159.6029968,21.896900179999999,1507000
KPAH,medium_airport,Barkley Regional Airport,410,NA,US,US-KY,Paducah,KPAH,PAH,PAH,-88.77380371,37.060798650000002,2150556
KPAE,medium_airport,Snohomish County (Paine Field) Airport,606,NA,US,US-WA,Everett,KPAE,PAE,PAE,-122.2819977,47.906299590000003,5347735
KOZR,medium_airport,Cairns AAF (Fort Rucker) Air Field,301,NA,US,US-AL,Fort Rucker/Ozark,KOZR,OZR,OZR,-85.71340179,31.275699620000001,0119360
KOZA,small_airport,Ozona Municipal Airport,2381,NA,US,US-TX,Ozona,KOZA,OZA,OZA,-101.2030029,30.735300060000000,4854552
KOXR,medium_airport,Oxnard Airport,45,NA,US,US-CA,Oxnard,KOXR,OXR,OXR,-119.2070007,34.200801849999998,0654652
KOXD,small_airport,Miami University Airport,1041,NA,US,US-OH,Oxford,KOXD,OXD,OXD,-84.78440094,39.502300259999998,3959234
KOXC,small_airport,Waterbury Oxford Airport,726,NA,US,US-CT,Oxford,KOXC,OXC,OXC,-73.1352005,41.478599549999998,0949880
KOWK,small_airport,Central Maine Airport of Norridgewock,270,NA,US,US-ME,Norridgewock,KOWK,OWK,OWK,-69.86650085,44.715499880000003,2349800
KOWD,medium_airport,Norwood Memorial Airport,49,NA,US,US-MA,Norwood,KOWD,OWD,OWD,-71.17289734,42.190498349999999,2550285
KOWB,medium_airport,Owensboro Daviess County Airport,407,NA,US,US-KY,Owensboro,KOWB,OWB,OWB,-87.16680145,37.740100859999998,2158620
KOWA,small_airport,Owatonna Degner Regional Airport,1145,NA,US,US-MN,Owatonna,KOWA,OWA,OWA,-93.26059723,44.123401639999997,2749300
KOVE,small_airport,Oroville Municipal Airport,192,NA,US,US-CA,Oroville,KOVE,OVE,OVE,-121.6220016,39.487800600000000,0678470
KOUN,small_airport,University of Oklahoma Westheimer Airport,1182,NA,US,US-OK,Norman,KOUN,OUN,OUN,-97.472099,35.245600000000003,4049200
PAOT,medium_airport,Ralph Wien Memorial Airport,14,NA,US,US-AK,Kotzebue,PAOT,OTZ,OTZ,-162.598999,66.884696959999999,0241830
K74S,small_airport,Anacortes Airport,241,NA,US,US-WA,Anacortes,,OTS,74S,-122.662003,48.499000000000002,5301990
2IG4,small_airport,Ed-Air Airport,426,NA,US,US-IN,Oaktown,I20,OTN,I20,-87.49970245,38.851398469999999,1766404
KOTM,medium_airport,Ottumwa Regional Airport,845,NA,US,US-IA,Ottumwa,KOTM,OTM,OTM,-92.44789886,41.106601720000000,1941565
KTMK,small_airport,Tillamook Airport,36,NA,US,US-OR,Tillamook,KTMK,OTK,TMK,-123.814003,45.418201449999998,4173700
KOTH,medium_airport,Southwest Oregon Regional Airport,17,NA,US,US-OR,North Bend,KOTH,OTH,OTH,-124.2460022,43.417099000000000,4153000
KOSU,medium_airport,The Ohio State University Airport - Don Scott Field,905,NA,US,US-OH,Columbus,KOSU,OSU,OSU,-83.072998,40.079799999999999,3967440
KOSH,medium_airport,Wittman Regional Airport,808,NA,US,US-WI,Oshkosh,KOSH,OSH,OSH,-88.55699921,43.984401699999999,5560500
KOSC,small_airport,Oscoda Wurtsmith Airport,633,NA,US,US-MI,Oscoda,KOSC,OSC,OSC,-83.394096,44.451599000000002,2661320
PFNO,small_airport,Robert (Bob) Curtis Memorial Airport,55,NA,US,US-AK,Noorvik,PFNO,ORV,D76,-161.0189972,66.817901610000007,0255140
PAOR,medium_airport,Northway Airport,1715,NA,US,US-AK,Northway,PAOR,ORT,ORT,-141.9290009,62.961299900000000,0256260
KORL,small_airport,Orlando Executive Airport,113,NA,US,US-FL,Orlando,KORL,ORL,ORL,-81.332901,28.545500000000001,1202850
KORH,medium_airport,Worcester Regional Airport,1009,NA,US,US-MA,Worcester,KORH,ORH,ORH,-71.8757019,42.267299649999998,2582000
KORF,large_airport,Norfolk International Airport,26,NA,US,US-VA,Norfolk,KORF,ORF,ORF,-76.20120239,36.894599909999997,5157000
KORD,large_airport,Chicago O'Hare International Airport,672,NA,US,US-IL,Chicago,KORD,ORD,ORD,-87.9048,41.978600000000000,1765819
KOPF,medium_airport,Miami-Opa Locka Executive Airport,8,NA,US,US-FL,Miami,KOPF,OPF,OPF,-80.278397,25.907000000000000,1251650
PAOO,small_airport,Toksook Bay Airport,59,NA,US,US-AK,Toksook Bay,PAOO,OOK,OOK,-165.0870056,60.541400910000000,0278240
KONT,large_airport,Ontario International Airport,944,NA,US,US-CA,Ontario,KONT,ONT,ONT,-117.6009979,34.055999759999999,0653896
KONP,medium_airport,Newport Municipal Airport,160,NA,US,US-OR,Newport,KONP,ONP,ONP,-124.057999,44.580399000000000,4152450
KONO,small_airport,Ontario Municipal Airport,2193,NA,US,US-OR,Ontario,KONO,ONO,ONO,-117.0139999,44.020500179999999,4154900
KONL,small_airport,The O'Neill Municipal John L Baker Field,2031,NA,US,US-NE,O'Neill,KONL,ONL,ONL,-98.688103,42.469898000000001,3137105
KOMK,small_airport,Omak Airport,1305,NA,US,US-WA,Omak,KOMK,OMK,OMK,-119.5179977,48.464401250000002,5358795
PAOM,medium_airport,Nome Airport,37,NA,US,US-AK,Nome,PAOM,OME,OME,-165.4450073,64.512199400000000,0254920
KOMA,large_airport,Eppley Airfield,984,NA,US,US-NE,Omaha,KOMA,OMA,OMA,-95.894096,41.303199999999997,1911215
KOLV,small_airport,Olive Branch Airport,402,NA,US,US-MS,Olive Branch,KOLV,OLV,OLV,-89.78690338,34.978698729999998,2854040
KOLS,medium_airport,Nogales International Airport,3955,NA,US,US-AZ,Nogales,KOLS,OLS,OLS,-110.848,31.417700000000000,0405970
KOLM,medium_airport,Olympia Regional Airport,209,NA,US,US-WA,Olympia,KOLM,OLM,OLM,-122.9029999,46.969398499999997,5372905
KOLF,medium_airport,L M Clayton Airport,1986,NA,US,US-MT,Wolf Point,KOLF,OLF,OLF,-105.5749969,48.094501500000000,3081475
KOLD,small_airport,"Dewitt Field,Old Town Municipal Airport",126,NA,US,US-ME,Old Town,KOLD,OLD,OLD,-68.67430115,44.952800750000002,2345635
KOKS,small_airport,Garden County Airport/King Rhiley Field,3394,NA,US,US-NE,Oshkosh,KOKS,OKS,OKS,-102.355003,41.401001000000001,3137560
KOKM,small_airport,Okmulgee Regional Airport,720,NA,US,US-OK,Okmulgee,KOKM,OKM,OKM,-95.94869995,35.668098450000002,4055150
KOKK,small_airport,Kokomo Municipal Airport,830,NA,US,US-IN,Kokomo,KOKK,OKK,OKK,-86.05899811,40.528198240000002,1840392
KOKC,large_airport,Will Rogers World Airport,1295,NA,US,US-OK,Oklahoma City,KOKC,OKC,OKC,-97.60070038,35.393100740000001,4076500
KOJC,small_airport,Johnson County Executive Airport,1096,NA,US,US-KS,Olathe,KOJC,OJC,OJC,-94.73760223,38.847599029999998,2053775
KOIL,closed,Splane Memorial Airport,1552,NA,US,US-PA,Oil City,KOIL,OIL,OIL,-79.7449,41.481299999999997,4266440
KOIC,small_airport,Lt Warren Eaton Airport,1025,NA,US,US-NY,Norwich,KOIC,OIC,OIC,-75.52410126,42.566600800000003,3653979
KOGS,small_airport,Ogdensburg International Airport,297,NA,US,US-NY,Ogdensburg,KOGS,OGS,OGS,-75.46549988,44.681900020000000,3654485
PHOG,medium_airport,Kahului Airport,54,NA,US,US-HI,Kahului,PHOG,OGG,OGG,-156.429993,20.898599999999998,1522700
KOGD,medium_airport,Ogden Hinckley Airport,4473,NA,US,US-UT,Ogden,KOGD,OGD,OGD,-112.012001,41.195899959999998,4964010
KOGB,medium_airport,Orangeburg Municipal Airport,195,NA,US,US-SC,Orangeburg,KOGB,OGB,OGB,-80.85949707,33.456798550000002,4553080
KOGA,small_airport,Searle Field,3279,NA,US,US-NE,Ogallala,KOGA,OGA,OGA,-101.7699966,41.119499210000001,3135980
KOFK,medium_airport,Karl Stefan Memorial Airport,1573,NA,US,US-NE,Norfolk,KOFK,OFK,OFK,-97.43509674,41.985500340000002,3134615
KOFF,medium_airport,Offutt Air Force Base,1052,NA,US,US-NE,Omaha,KOFF,OFF,OFF,-95.91249847,41.118301389999999,3135875
KOEO,small_airport,L O Simenstad Municipal Airport,903,NA,US,US-WI,Osceola,KOEO,OEO,OEO,-92.69190216,45.310001370000002,5560450
KOEA,small_airport,O'Neal Airport,414,NA,US,US-IN,Vincennes,KOEA,OEA,OEA,-87.55220032,38.691398620000001,1879208
KOKH,small_airport,AJ Eisenberg Airport,193,NA,US,US-WA,Oak Harbor,KOKH,ODW,OKH,-122.6740036,48.251499180000003,5315185
KO27,small_airport,Oakdale Airport,237,NA,US,US-CA,Oakdale,O27,ODC,O27,-120.8000031,37.756301880000002,0620907
KOCW,small_airport,Warren Field,38,NA,US,US-NC,Washington,KOCW,OCW,OCW,-77.04979706,35.570499419999997,3771220
KOKB,small_airport,Oceanside Municipal Airport,28,NA,US,US-CA,Oceanside,KOKB,OCN,OKB,-117.3539963,33.217300420000001,0610561
KOCH,small_airport,A L Mangham Jr. Regional Airport,355,NA,US,US-TX,Nacogdoches,KOCH,OCH,OCH,-94.70950317,31.577999110000000,4850256
KOCF,small_airport,Ocala International Airport - Jim Taylor Field,90,NA,US,US-FL,Ocala,KOCF,OCF,OCF,-82.22419739,29.172599790000000,1250750
KOXB,small_airport,Ocean City Municipal Airport,11,NA,US,US-MD,Ocean City,KOXB,OCE,OXB,-75.12400055,38.310398100000000,2483225
07FA,small_airport,Ocean Reef Club Airport,8,NA,US,US-FL,Key Largo,07FA,OCA,07FA,-80.27480316,25.325399399999998,1249406
PAOB,small_airport,Kobuk Airport,137,NA,US,US-AK,Kobuk,PAOB,OBU,OBU,-156.8970032,66.912300110000004,0240840
OBK,closed,Sky Harbor Airport,675,NA,US,US-IL,Northbrook,,OBK,,-87.85555556,42.143888889999999,1753481
KOBE,small_airport,Okeechobee County Airport,34,NA,US,US-FL,Okeechobee,KOBE,OBE,OBE,-80.84980011,27.262800219999999,1251200
KOAR,small_airport,Marina Municipal Airport,137,NA,US,US-CA,Marina,KOAR,OAR,OAR,-121.762001,36.681900020000000,0645778
KOAK,large_airport,Metropolitan Oakland International Airport,9,NA,US,US-CA,Oakland,KOAK,OAK,OAK,-122.221001,37.721297999999997,0653000
KOAJ,medium_airport,Albert J Ellis Airport,94,NA,US,US-NC,Jacksonville,KOAJ,OAJ,OAJ,-77.61209869,34.829200739999997,3756360
KNZY,medium_airport,North Island Naval Air Station-Halsey Field,26,NA,US,US-CA,San Diego,KNZY,NZY,NZY,-117.2149963,32.699199680000000,0616378
KO02,small_airport,Nervino Airport,4900,NA,US,US-CA,Beckwourth,KO02,NVN,O02,-120.3529968,39.818500520000001,0604772
KNUW,medium_airport,Whidbey Island Naval Air Station (Ault Field),47,NA,US,US-WA,Oak Harbor,KNUW,NUW,NUW,-122.655998,48.351799000000000,5378155
KNUQ,medium_airport,Moffett Federal Airfield,32,NA,US,US-CA,Mountain View,KNUQ,NUQ,NUQ,-122.049004,37.416100000000000,0649670
16A,small_airport,Nunapitchuk Airport,12,NA,US,US-AK,Nunapitchuk,PPIT,NUP,16A,-162.440454,60.905591000000001,0256680
PANU,small_airport,Nulato Airport,399,NA,US,US-AK,Nulato,PANU,NUL,NUL,-158.074005,64.729301000000007,0256350
PAQT,medium_airport,Nuiqsut Airport,38,NA,US,US-AK,Nuiqsut,PAQT,NUI,AQT,-151.0059967,70.209999080000003,0256320
KNTU,medium_airport,Oceana Naval Air Station,23,NA,US,US-VA,Virginia Beach,KNTU,NTU,NTU,-76.033501,36.820701999999997,5182000
K41U,small_airport,Manti-Ephraim Airport,5500,NA,US,US-UT,Manti,41U,NTJ,41U,-111.6149979,39.329101559999998,4923530
KNTD,medium_airport,Point Mugu Naval Air Station (Naval Base Ventura Co),13,NA,US,US-CA,Point Mugu,KNTD,NTD,NTD,-119.1210022,34.120300290000003,0658296
KDVP,small_airport,Slayton Municipal Airport,1623,NA,US,US-MN,Slayton,KDVP,NSL,DVP,-95.7826004,43.986801149999998,2760808
KNSE,medium_airport,Whiting Field Naval Air Station - North,199,NA,US,US-FL,Milton,KNSE,NSE,NSE,-87.02189636,30.724199299999999,1261615
KNRS,small_airport,Naval Outlying Field Imperial Beach (Ream Field),24,NA,US,US-CA,Imperial Beach,KNRS,NRS,NRS,-117.116997,32.566699999999997,0636294
K3O9,small_airport,Grand Lake Regional Airport,792,NA,US,US-OK,Afton,3O9,NRI,3O9,-94.86190033,36.577598569999999,4020100
NRC,closed,NASA Crows Landing Airport,166,NA,US,US-CA,Crows Landing,KNRC,NRC,NRC,-121.1090012,37.408000950000002,0617428
KNRB,medium_airport,Naval Station Mayport (Admiral David L. Mcdonald Field),15,NA,US,US-FL,Mayport,KNRB,NRB,NRB,-81.42469788,30.391099929999999,1202400
KNQX,medium_airport,Naval Air Station Key West/Boca Chica Field,6,NA,US,US-FL,Key West,KNQX,NQX,NQX,-81.68890381,24.575799940000000,1206350
KNQI,medium_airport,Kingsville Naval Air Station,50,NA,US,US-TX,Kingsville,KNQI,NQI,NQI,-97.80970001,27.507200240000000,4839352
KNQA,medium_airport,Millington-Memphis Airport,320,NA,US,US-TN,Millington,KNQA,NQA,NQA,-89.8703,35.356701000000001,4749060
KUUU,small_airport,Newport State Airport,172,NA,US,US-RI,Newport,KUUU,NPT,UUU,-71.28150177,41.532398219999997,4450140
KU14,small_airport,Nephi Municipal Airport,5022,NA,US,US-UT,Nephi,U14,NPH,U14,-111.8720016,39.738800050000002,4954220
KNPA,medium_airport,Pensacola Naval Air Station/Forrest Sherman Field,28,NA,US,US-FL,Pensacola,KNPA,NPA,NPA,-87.31860352,30.352699280000000,1275200
KDVO,small_airport,Marin County Airport - Gnoss Field,2,NA,US,US-CA,Novato,KDVO,NOT,DVO,-122.5559998,38.143600460000002,0606982
PANO,small_airport,Nondalton Airport,314,NA,US,US-AK,Nondalton,PANO,NNL,5NN,-154.8390045,59.980201719999997,0255030
5NK,small_airport,Naknek Airport,70,NA,US,US-AK,Naknek,5NK,NNK,5NK,-157.0200043,58.732898710000001,0272190
PAGT,small_airport,Nightmute Airport,4,NA,US,US-AK,Nightmute,PAGT,NME,IGT,-164.701004,60.471000670000002,0253930
O19,small_airport,Kneeland Airport,2737,NA,US,US-CA,Eureka,O19,NLN,O19,-123.9280014,40.719299319999998,0636420
PAOU,small_airport,Nelson Lagoon Airport,14,NA,US,US-AK,Nelson Lagoon,PAOU,NLG,OUL,-161.1600037,56.007499690000003,0252940
K3TR,small_airport,Jerry Tyler Memorial Airport,750,NA,US,US-MI,Niles,3TR,NLE,3TR,-86.22519684,41.835899349999998,2657760
KNLC,medium_airport,Lemoore Naval Air Station (Reeves Field) Airport,232,NA,US,US-CA,Lemoore,KNLC,NLC,NLC,-119.9520035,36.333000179999999,0641166
KNKX,medium_airport,Miramar Marine Corps Air Station - Mitscher Field,477,NA,US,US-CA,San Diego,KNKX,NKX,NKX,-117.1429977,32.868400569999999,0666000
AK62,seaplane_base,Naukati Bay Seaplane Base,0,NA,US,US-AK,Tuxekan Island,AK62,NKI,AK62,-133.227994,55.849601999999997,0252845
KNJK,medium_airport,El Centro NAF Airport (Vraciu Field),-42,NA,US,US-CA,El Centro,KNJK,NJK,NJK,-115.671996,32.829200999999998,0670798
1XA2,small_airport,Chase Field Industrial Airport,190,NA,US,US-TX,Beeville,,NIR,TX2,-97.661917,28.362444000000000,4807192
KNIP,medium_airport,Jacksonville Naval Air Station (Towers Field),21,NA,US,US-FL,Jacksonville,KNIP,NIP,NIP,-81.680603,30.235800000000001,1252125
PAFS,small_airport,Nikolai Airport,441,NA,US,US-AK,Nikolai,PAFS,NIB,FSP,-154.358002,63.018599999999999,0254150
KNHZ,medium_airport,Brunswick Executive Airport,72,NA,US,US-ME,Brunswick,KBXM,NHZ,BXM,-69.93859863,43.892200469999999,2308500
KNBJ,small_airport,Naval Outlying Field Barin,54,NA,US,US-AL,Foley,KNBJ,NHX,NBJ,-87.63529968,30.389099120000001,0126992
KNHK,medium_airport,Patuxent River Naval Air Station (Trapnell Field),39,NA,US,US-MD,Patuxent River,KNHK,NHK,NHK,-76.411797,38.285998999999997,2446725
KNGZ,closed,Alameda Naval Air Station,10,NA,US,US-CA,Alameda,KNGZ,NGZ,,-122.3199997,37.788898469999999,0600562
KNGU,medium_airport,Norfolk Naval Station (Chambers Field),17,NA,US,US-VA,Norfolk,KNGU,NGU,NGU,-76.289299,36.937598999999999,5157000
PHNG,medium_airport,Kaneohe Bay MCAS (Marion E. Carl Field) Airport,24,NA,US,US-HI,Kaneohe,PHNG,NGF,NGF,-157.7680054,21.450500490000000,1528400
KNFL,medium_airport,Fallon Naval Air Station,3934,NA,US,US-NV,Fallon,KNFL,NFL,NFL,-118.7009964,39.416599269999999,3224500
KNEW,medium_airport,Lakefront Airport,8,NA,US,US-LA,New Orleans,KNEW,NEW,NEW,-90.02829742,30.042400359999998,2202550
KNEN,small_airport,Whitehouse Naval Outlying Field,99,NA,US,US-FL,Jacksonville,KNEN,NEN,NEN,-81.87190247,30.353900910000000,1203250
KNEL,medium_airport,Lakehurst Maxfield Field Airport,101,NA,US,US-NJ,Lakehurst,KNEL,NEL,NEL,-74.353302,40.033298490000000,3437770
KOQU,medium_airport,Quonset State Airport,18,NA,US,US-RI,North Kingstown,KOQU,NCO,OQU,-71.41210175,41.597099300000004,4445010
PFCB,small_airport,Chenega Bay Airport,72,NA,US,US-AK,Chenega,PFCB,NCN,C05,-147.9920044,60.077301030000001,0212970
KNBG,medium_airport,New Orleans NAS JRB/Alvin Callender Field,2,NA,US,US-LA,New Orleans,KNBG,NBG,NBG,-90.03500366,29.825300219999999,2206120
KMZZ,small_airport,Marion Municipal Airport,859,NA,US,US-IN,Marion,KMZZ,MZZ,MZZ,-85.67970276,40.489898680000003,1838862
KMZJ,small_airport,Pinal Airpark,1893,NA,US,US-AZ,Marana,KMZJ,MZJ,MZJ,-111.3280029,32.510601039999997,0459760
KMYV,medium_airport,Yuba County Airport,64,NA,US,US-CA,Marysville,KMYV,MYV,MYV,-121.5699997,39.097801210000000,0653714
PAMY,medium_airport,Mekoryuk Airport,48,NA,US,US-AK,Mekoryuk,PAMY,MYU,MYU,-166.2709961,60.371398929999998,0247990
KMYR,medium_airport,Myrtle Beach International Airport,25,NA,US,US-SC,Myrtle Beach,KMYR,MYR,MYR,-78.92829895,33.679698940000002,4549075
KMYL,medium_airport,McCall Municipal Airport,5024,NA,US,US-ID,McCall,KMYL,MYL,MYL,-116.1009979,44.889701840000001,1648790
MYK,small_airport,May Creek Airport,1650,NA,US,US-AK,May Creek,MYK,MYK,MYK,-142.6869965,61.335700989999999,0245790
KMYF,small_airport,Montgomery-Gibbs Executive Airport,427,NA,US,US-CA,San Diego,KMYF,MYF,MYF,-117.139999,32.815700000000000,0666000
PAMX,small_airport,Mc Carthy Airport,1531,NA,US,US-AK,Mccarthy,PAMX,MXY,15Z,-142.904007,61.437099459999999,0245790
9B1,small_airport,Marlboro Airport,285,NA,US,US-MA,Marlboro,,MXG,9B1,-71.509002,42.343201000000001,2538715
KMXF,medium_airport,Maxwell Air Force Base,171,NA,US,US-AL,Montgomery,KMXF,MXF,MXF,-86.365799,32.382899999999999,0151000
KMEB,small_airport,Laurinburg Maxton Airport,216,NA,US,US-NC,Maxton,KMEB,MXE,MEB,-79.365799,34.791901000000003,3742020
MXC,small_airport,Monticello Airport,6966,NA,US,US-UT,Monticello,,MXC,U64,-109.341225,37.932429999999997,4951580
KMXA,small_airport,Manila Municipal Airport,242,NA,US,US-AR,Manila,KMXA,MXA,MXA,-90.154602,35.894401999999999,0543820
KMWO,small_airport,Middletown Regional Airport,650,NA,US,US-OH,Middletown,KMWO,MWO,MWO,-84.395302,39.530997999999997,3949840
KMWL,small_airport,Mineral Wells Regional Airport,974,NA,US,US-TX,Mineral Wells,KMWL,MWL,MWL,-98.060204,32.781601000000002,4848684
KMWH,medium_airport,Grant County International Airport,1189,NA,US,US-WA,Moses Lake,KMWH,MWH,MWH,-119.3199997,47.207698819999997,5347280
KMWC,small_airport,Lawrence J Timmerman Airport,745,NA,US,US-WI,Milwaukee,KMWC,MWC,MWC,-88.034401,43.110401000000003,5511475
KMWA,small_airport,Williamson County Regional Airport,472,NA,US,US-IL,Marion,KMWA,MWA,MWA,-89.01110077,37.755001069999999,1724166
KMVY,small_airport,Martha's Vineyard Airport,67,NA,US,US-MA,Martha's Vineyard,KMVY,MVY,MVY,-70.61430359,41.393100740000001,2571970
KBVS,small_airport,Skagit Regional Airport,144,NA,US,US-WA,Burlington/Mount Vernon,KBVS,MVW,BVS,-122.4209976,48.470901490000003,5304790
K0V7,small_airport,Kayenta Airport,5688,NA,US,US-AZ,Kayenta,,MVM,0V7,-110.228444,36.716444000000003,0436990
KMVL,small_airport,Morrisville Stowe State Airport,732,NA,US,US-VT,Morrisville,KMVL,MVL,MVL,-72.61399841,44.534599300000004,5046825
KMVE,small_airport,Montevideo Chippewa County Airport,1034,NA,US,US-MN,Montevideo,KMVE,MVE,MVE,-95.710297,44.969101000000002,2743720
KMVC,small_airport,Monroe County Aeroplex Airport,419,NA,US,US-AL,Monroeville,KMVC,MVC,MVC,-87.350996,31.457999999999998,0124880
KMUT,small_airport,Muscatine Municipal Airport,547,NA,US,US-IA,Muscatine,KMUT,MUT,MUT,-91.148201,41.367803000000002,1929280
KMUO,large_airport,Mountain Home Air Force Base,2996,NA,US,US-ID,Mountain Home,KMUO,MUO,MUO,-115.872002,43.043598000000003,1654820
KMUI,medium_airport,Muir Army Air Field (Fort Indiantown Gap) Airport,488,NA,US,US-PA,Fort Indiantown Gap(Annville),KMUI,MUI,MUI,-76.569397,40.434798999999998,4226812
PHMU,medium_airport,Waimea Kohala Airport,2671,NA,US,US-HI,Kamuela,PHMU,MUE,MUE,-155.6679993,20.001300810000000,1578500
MTF,small_airport,Metro Field,432,NA,US,US-AK,Fairbanks,MTF,MTX,MTF,-147.7619934,64.806800839999994,0272230
KMTW,small_airport,Manitowoc County Airport,651,NA,US,US-WI,Manitowoc,KMTW,MTW,MTW,-87.680602,44.128799000000001,5548500
KMTP,small_airport,Montauk Airport,6,NA,US,US-NY,Montauk,KMTP,MTP,MTP,-71.920797,41.076500000000003,3648054
KMTO,small_airport,Coles County Memorial Airport,722,NA,US,US-IL,Mattoon/Charleston,KMTO,MTO,MTO,-88.279198,39.477901000000003,1742938
KMTN,medium_airport,Martin State Airport,21,NA,US,US-MD,Baltimore,KMTN,MTN,MTN,-76.413803,39.325699000000000,2452300
PAMM,seaplane_base,Metlakatla Seaplane Base,,NA,US,US-AK,Metlakatla,PAMM,MTM,MTM,-131.578003,55.131000999999998,0248870
KMTJ,medium_airport,Montrose Regional Airport,5759,NA,US,US-CO,Montrose,KMTJ,MTJ,MTJ,-107.8939972,38.509799960000002,0851745
KMTH,medium_airport,The Florida Keys Marathon Airport,5,NA,US,US-FL,Marathon,KMTH,MTH,MTH,-81.051399,24.726101000000000,1243000
KMTC,medium_airport,Selfridge Air National Guard Base Airport,580,NA,US,US-MI,Mount Clemens,KMTC,MTC,MTC,-82.836919,42.613463000000003,2655820
KMSY,large_airport,Louis Armstrong New Orleans International Airport,4,NA,US,US-LA,New Orleans,KMSY,MSY,MSY,-90.25800323,29.993400569999999,2239475
KMSV,small_airport,Sullivan County International Airport,1403,NA,US,US-NY,Monticello,KMSV,MSV,MSV,-74.794997,41.701596000000002,3667730
KMSS,medium_airport,Massena International Richards Field,215,NA,US,US-NY,Massena,KMSS,MSS,MSS,-74.84559631,44.935798650000002,3646019
KMSP,large_airport,Minneapolis-St Paul International/Wold-Chamberlain Airport,841,NA,US,US-MN,Minneapolis,KMSP,MSP,MSP,-93.221802,44.881999999999998,2741678
KMSO,medium_airport,Missoula International Airport,3206,NA,US,US-MT,Missoula,KMSO,MSO,MSO,-114.0910034,46.916301730000001,3081980
KMSN,large_airport,Dane County Regional Truax Field,887,NA,US,US-WI,Madison,KMSN,MSN,MSN,-89.33750153,43.139900210000000,5548750
KMSL,medium_airport,Northwest Alabama Regional Airport,551,NA,US,US-AL,Muscle Shoals,KMSL,MSL,MSL,-87.61019897,34.745300290000003,0153016
K43U,closed,Mount Pleasant Airport,5830,NA,US,US-UT,Mount Pleasant,,MSD,,-111.475978,39.526651000000001,4953010
KFFZ,small_airport,Falcon Field,1394,NA,US,US-AZ,Mesa,KFFZ,MSC,FFZ,-111.7279968,33.460800169999999,0446000
KMRY,medium_airport,Monterey Peninsula Airport,257,NA,US,US-CA,Monterey,KMRY,MRY,MRY,-121.8430023,36.587001800000003,0618688
KMRN,small_airport,Foothills Regional Airport,1270,NA,US,US-NC,Morganton,KMRN,MRN,MRN,-81.611397,35.820202000000002,3725380
KMKY,small_airport,Marco Island Executive Airport,5,NA,US,US-FL,Marco Island,KMKY,MRK,MKY,-81.672501,25.995000999999998,1243083
PAMR,medium_airport,Merrill Field,137,NA,US,US-AK,Anchorage,PAMR,MRI,MRI,-149.8439941,61.213500979999999,0261788
KMRF,small_airport,Marfa Municipal Airport,4849,NA,US,US-TX,Marfa,KMRF,MRF,MRF,-104.017997,30.371099000000001,4846620
KMRC,small_airport,Maury County Airport,681,NA,US,US-TN,Columbia/Mount Pleasant,KMRC,MRC,MRC,-87.17890167,35.554100040000002,4751080
KMRB,medium_airport,Eastern WV Regional Airport/Shepherd Field,565,NA,US,US-WV,Martinsburg,KMRB,MRB,MRB,-77.98459625,39.401901250000002,5452060
KMQY,medium_airport,Smyrna Airport,543,NA,US,US-TN,Smyrna,KMQY,MQY,MQY,-86.52010345,36.008998869999999,4741200
KSAW,medium_airport,Sawyer International Airport,1221,NA,US,US-MI,Marquette,KSAW,MQT,SAW,-87.395401,46.353599549999998,2643558
KMQB,small_airport,Macomb Municipal Airport,707,NA,US,US-IL,Macomb,KMQB,MQB,MQB,-90.65239716,40.520099639999998,1730458
KMPZ,small_airport,Mount Pleasant Municipal Airport,730,NA,US,US-IA,Mount Pleasant,KMPZ,MPZ,MPZ,-91.51110077,40.946601870000002,1954705
KMPV,medium_airport,Edward F Knapp State Airport,1166,NA,US,US-VT,Barre/Montpelier,KMPV,MPV,MPV,-72.56230164,44.203498840000002,5003175
KMPO,small_airport,Pocono Mountains Municipal Airport,1915,NA,US,US-PA,Mount Pocono,KMPO,MPO,MPO,-75.378897,41.137503000000002,4251912
KMPJ,small_airport,Petit Jean Park Airport,923,NA,US,US-AR,Morrilton,KMPJ,MPJ,MPJ,-92.909202,35.138900999999997,0500250
N04,closed,Griswold Airport,15,NA,US,US-CT,Madison,N04,MPE,N04,-72.54969788,41.271198269999999,0915420
X44,seaplane_base,Miami Seaplane Base,0,NA,US,US-FL,Miami,X44,MPB,X44,-80.17030334,25.778299329999999,1222375
PAMO,small_airport,Mountain Village Airport,337,NA,US,US-AK,Mountain Village,PAMO,MOU,MOU,-163.6820068,62.095401760000001,0251180
KMOT,medium_airport,Minot International Airport,1716,NA,US,US-ND,Minot,KMOT,MOT,MOT,-101.2799988,48.259399410000000,3853380
KMOD,medium_airport,Modesto City Co-Harry Sham Field,97,NA,US,US-CA,Modesto,KMOD,MOD,MOD,-120.9540024,37.625801090000003,0600535
KMOB,large_airport,Mobile Regional Airport,219,NA,US,US-AL,Mobile,KMOB,MOB,MOB,-88.24279785,30.691200259999999,0169240
KHEF,small_airport,Manassas Regional Airport/Harry P. Davis Field,192,NA,US,US-VA,Manassas,KHEF,MNZ,HEF,-77.51540375,38.721401210000003,5148952
51Z,small_airport,Minto Al Wright Airport,460,NA,US,US-AK,Minto,,MNT,51Z,-149.369995,65.143699999999995,0249530
KMNN,small_airport,Marion Municipal Airport,993,NA,US,US-OH,Marion,KMNN,MNN,MNN,-83.06349945,40.616199490000000,3947754
KMNM,small_airport,Menominee Regional Airport,625,NA,US,US-MI,Menominee,KMNM,MNM,MNM,-87.638397,45.126700999999997,2653020
KMMU,medium_airport,Morristown Municipal Airport,187,NA,US,US-NJ,Morristown,KMMU,MMU,MMU,-74.41490173,40.799400329999997,3423910
KMMT,medium_airport,Mc Entire Joint National Guard Base,254,NA,US,US-SC,Eastover,KMMT,MMT,MMT,-80.80130005,33.920799260000003,4534990
KMMS,small_airport,Selfs Airport,162,NA,US,US-MS,Marks,KMMS,MMS,MMS,-90.28959656,34.231498719999998,2845240
KMML,small_airport,Southwest Minnesota Regional Airport - Marshall/Ryan Field,1183,NA,US,US-MN,Marshall,KMML,MML,MML,-95.82189941,44.450500490000003,2740688
KMMI,small_airport,McMinn County Airport,875,NA,US,US-TN,Athens,KMMI,MMI,MMI,-84.56259918,35.397300719999997,4724480
KMMH,small_airport,Mammoth Yosemite Airport,7135,NA,US,US-CA,Mammoth Lakes,KMMH,MMH,MMH,-118.8379974,37.624099729999998,0644830
PAML,small_airport,Manley Hot Springs Airport,270,NA,US,US-AK,Manley Hot Springs,PAML,MLY,MLY,-150.6439972,64.997596740000006,0246780
KMLU,large_airport,Monroe Regional Airport,79,NA,US,US-LA,Monroe,KMLU,MLU,MLU,-92.03769684,32.510898589999996,2241470
KMLS,medium_airport,Frank Wiley Field,2630,NA,US,US-MT,Miles City,KMLS,MLS,MLS,-105.8860016,46.428001399999999,3049525
PADM,medium_airport,Marshall Don Hunter Sr Airport,103,NA,US,US-AK,Marshall,PADM,MLL,MDM,-162.026001,61.864299770000002,0247000
KM75,small_airport,Malta Airport,2254,NA,US,US-MT,Malta,M75,MLK,M75,-107.9189987,48.366901400000003,3047425
KMLI,large_airport,Quad City International Airport,590,NA,US,US-IL,Moline,KMLI,MLI,MLI,-90.50749969,41.448501589999999,1749867
KMLC,medium_airport,Mc Alester Regional Airport,770,NA,US,US-OK,Mc Alester,KMLC,MLC,MLC,-95.783501,34.882401000000002,4044800
KMLB,medium_airport,Melbourne International Airport,33,NA,US,US-FL,Melbourne,KMLB,MLB,MLB,-80.64530182,28.102800370000001,1243975
KMKL,medium_airport,McKellar-Sipes Regional Airport,434,NA,US,US-TN,Jackson,KMKL,MKL,MKL,-88.915604,35.599899000000001,4737640
PHMK,medium_airport,Molokai Airport,454,NA,US,US-HI,Kaunakakai,PHMK,MKK,MKK,-157.095993,21.152900700000000,1539500
KMKG,medium_airport,Muskegon County Airport,629,NA,US,US-MI,Muskegon,KMKG,MKG,MKG,-86.238197,43.169497999999997,2659140
KMKE,large_airport,General Mitchell International Airport,723,NA,US,US-WI,Milwaukee,KMKE,MKE,MKE,-87.89659882,42.947200780000003,5517975
KMKC,medium_airport,Charles B. Wheeler Downtown Airport,759,NA,US,US-MO,Kansas City,KMKC,MKC,MKC,-94.59279633,39.123199460000002,2953102
